DateTime,UHT,CTB,R_UHT,R_CAP,CCF,Ver,Imax,Uin,Microsec,Serial,ShotPt,SP_step,Line,FileCnt,Mode,Language,Compatibility,GphType,ShotByPPS,DetType,HighVoltage,CCFThresh,PrivateCode,FireDelay,RadioDelay,RadioAmpl,CTB_max,UHT_min,UHT_mode,UHT_test,TimeZone,TimeSlot,ShooterAmount,r0_uh,r0_cap,adc_null,GGA,DetInfo,DetNumber,Shift,Noise,Data0,Data1,Data2
"",200.0,100.0,26.6,5.0,99,2,70,118,247193,25022176,1,1,0,3,0,1,0,0,0,0,6,29,1,3500,0,3,10,50,0,50,26,10,1,0,0,11,"$GNGGA,063235.00,5451.31515,N,08302.52474,E,1,07,1.90,128.1,M,-38.2,M,,*6D
",0,0,0,30,1,-22,-25
"",5.0,100.0,27.4,4.7,99,2,73,122,40885,25022176,2,1,0,4,0,1,0,0,0,0,6,29,1,3500,0,3,10,50,0,50,26,10,1,0,0,11,"$GNGGA,063309.00,5451.31285,N,08302.52220,E,1,08,1.17,112.8,M,-38.2,M,,*6A
",0,0,0,30,61,38,28
"",11.0,51.7,27.4,4.7,99,2,72,122,89820,25022176,3,1,0,5,0,1,0,0,0,0,6,29,1,3500,0,3,10,50,0,50,26,10,1,0,0,11,"$GNGGA,063334.00,5451.31350,N,08302.52201,E,1,08,1.18,110.7,M,-38.2,M,,*6C
",0,0,2,23,-2,-7,-6
"",200.0,100.0,13.4,2.6,87,2,79,130,0,25022176,4,1,0,6,0,1,0,0,1,0,3,29,15,3500,0,6,10,50,0,50,17,10,1,0,0,11,"$GNGGA,121706.00,5220.52685,N,03021.27885,E,1,07,1.42,164.4,M,23.9,M,,*47
",0,0,0,202,21,-1,-7
"",23.5,100.0,24.8,2.6,98,2,77,131,0,25022176,5,1,0,7,0,1,0,0,1,0,3,29,2,3500,0,6,10,50,0,500,17,10,1,0,0,11,"$GNGGA,112730.00,5220.54263,N,03021.30835,E,1,08,1.36,116.1,M,23.9,M,,*49
",0,0,2,1,-1,-7,-7
"",23.4,100.0,24.8,2.6,99,2,76,131,0,25022176,6,1,0,8,0,1,0,0,1,0,3,29,2,3500,0,6,10,50,0,500,17,10,1,0,0,11,"$GNGGA,112818.00,5220.54352,N,03021.30912,E,1,11,1.03,112.2,M,23.9,M,,*42
",0,0,2,1,-2,-7,-7
"",23.4,100.0,24.8,2.6,99,2,76,130,0,25022176,7,1,0,9,0,1,0,0,1,0,3,29,2,3500,0,6,10,50,0,500,17,10,1,0,0,11,"$GNGGA,112930.00,5220.54192,N,03021.30423,E,2,12,0.84,124.8,M,23.9,M,,0000*49
",0,0,2,1,-1,-6,-8
"",23.4,50.5,30.1,0.4,41,2,214,130,0,25022176,0,1,0,10,0,1,0,0,1,0,3,29,2,3500,0,6,10,50,2,500,17,10,1,0,0,11,"$GNGGA,120033.00,5225.52561,N,03005.60183,E,2,12,0.64,151.6,M,24.2,M,,0000*4B
",0,0,2,55,12,9,7
"",27.1,48.3,29.9,0.5,26,2,198,130,0,25022176,1,1,0,11,0,1,0,0,1,0,3,29,2,3500,0,6,10,50,2,500,17,10,1,0,0,11,"$GNGGA,122731.00,5225.52409,N,03005.60461,E,2,12,0.66,160.3,M,24.2,M,,0000*4F
",0,0,2,61,18,14,13
"",17.4,7.7,29.6,0.5,59,2,196,134,0,25022176,0,1,0,12,0,1,0,0,1,0,3,29,2,3500,0,6,10,50,2,500,17,10,1,0,0,11,"$GNGGA,095513.00,5206.09355,N,03007.25227,E,1,08,1.34,139.2,M,24.5,M,,*42
",0,0,2,98,9,6,5
"",18.0,46.6,28.9,0.5,47,2,207,133,0,25022176,1,1,0,13,0,1,0,0,1,0,3,29,2,3500,0,6,10,50,2,500,17,10,1,0,0,11,"$GNGGA,100136.00,5206.07943,N,03007.24541,E,2,12,0.77,135.8,M,24.5,M,,0000*41
",0,0,2,200,62,57,56
"",17.7,35.5,30.0,0.5,55,2,203,132,0,25022176,2,1,0,14,0,1,0,0,1,0,3,29,2,3500,0,6,10,50,2,500,17,10,1,0,0,11,"$GNGGA,100744.00,5206.08159,N,03007.21972,E,2,12,0.68,135.9,M,24.5,M,,0000*48
",0,0,2,89,21,17,17
"",16.1,48.2,29.0,0.5,57,2,208,131,0,25022176,3,1,0,15,0,1,0,0,1,0,3,29,2,3500,0,6,10,50,2,500,17,10,1,0,0,11,"$GNGGA,101718.00,5206.12584,N,03007.22099,E,2,12,0.65,161.5,M,24.5,M,,0000*40
",0,0,2,84,2,-1,-2
"",17.2,100.0,27.9,0.5,50,2,216,131,0,25022176,4,1,0,16,0,1,0,0,1,0,3,29,2,3500,0,6,10,50,2,500,17,10,1,0,0,11,"$GNGGA,101834.00,5206.11762,N,03007.20699,E,2,12,0.69,138.9,M,24.5,M,,0000*40
",0,0,2,283,-84,-91,-92
"",17.7,7.4,29.4,0.5,29,2,216,130,0,25022176,5,1,0,17,0,1,0,0,1,0,3,29,2,3500,0,6,10,50,2,500,17,10,1,0,0,11,"$GNGGA,102359.00,5206.12335,N,03007.17697,E,1,12,0.77,137.8,M,24.5,M,,*4E
",0,0,2,114,118,114,113
"",17.8,45.6,29.0,0.5,77,2,209,130,0,25022176,6,1,0,18,0,1,0,0,1,0,3,29,2,3500,0,6,10,50,2,500,17,10,1,0,0,11,"$GNGGA,103034.00,5206.09839,N,03007.18202,E,1,12,0.65,141.9,M,24.5,M,,*4E
",0,0,2,81,-67,-72,-73
"",16.0,7.0,28.7,0.4,49,2,215,130,0,25022176,7,1,0,19,0,1,0,0,1,0,3,29,2,3500,0,6,10,50,2,500,17,10,1,0,0,11,"$GNGGA,103624.00,5206.07410,N,03007.11639,E,1,12,0.72,132.3,M,24.5,M,,*4D
",0,0,2,86,11,8,8
"",16.8,46.0,28.6,0.5,46,2,210,130,0,25022176,8,1,0,20,0,1,0,0,1,0,3,29,2,3500,0,6,10,50,2,500,17,10,1,0,0,11,"$GNGGA,104239.00,5206.06266,N,03007.13904,E,2,12,0.98,136.4,M,24.5,M,,0000*43
",0,0,2,85,-10,-15,-17
"",18.7,58.0,30.0,0.5,44,2,209,130,0,25022176,9,1,0,21,0,1,0,0,1,0,3,29,2,3500,0,6,10,50,2,500,17,10,1,0,0,11,"$GNGGA,105045.00,5206.05427,N,03007.09294,E,2,12,0.69,142.7,M,24.5,M,,0000*4C
",0,0,2,72,-5,-9,-10
"",18.6,35.4,29.4,0.6,63,2,190,130,0,25022176,10,1,0,22,0,1,0,0,1,0,3,29,2,3500,0,6,10,50,2,500,17,10,1,0,0,11,"$GNGGA,105424.00,5206.07048,N,03007.07235,E,1,12,0.68,132.4,M,24.5,M,,*43
",0,0,2,156,29,26,26
"",17.6,42.3,28.4,0.5,34,2,203,130,0,25022176,11,1,0,23,0,1,0,0,1,0,3,29,2,3500,0,6,10,50,2,500,17,10,1,0,0,11,"$GNGGA,110403.00,5206.08102,N,03007.03856,E,2,12,0.60,141.6,M,24.5,M,,0000*44
",0,0,2,95,18,14,14
"",14.6,6.4,29.6,0.4,44,2,217,130,0,25022176,12,1,0,24,0,1,0,0,1,0,3,29,2,3500,0,6,10,50,2,500,17,10,1,0,0,11,"$GNGGA,110923.00,5206.09415,N,03007.01025,E,2,12,0.72,139.2,M,24.5,M,,0000*4F
",0,0,2,44,-3,-7,-7
"",15.3,42.6,28.1,0.4,26,2,217,130,0,25022176,13,1,0,25,0,1,0,0,1,0,3,29,2,3500,0,6,10,50,2,500,17,10,1,0,0,11,"$GNGGA,111618.00,5206.10123,N,03006.98103,E,1,12,0.67,149.2,M,24.5,M,,*45
",0,0,2,142,-66,-71,-70
"",14.8,41.6,29.1,0.5,40,2,211,130,0,25022176,14,1,0,26,0,1,0,0,1,0,3,29,2,3500,0,6,10,50,2,500,17,10,1,0,0,11,"$GNGGA,112309.00,5206.11610,N,03006.96095,E,2,12,0.65,151.2,M,24.5,M,,0000*4D
",0,0,2,123,106,101,100
"",21.0,7.0,28.8,0.5,46,2,199,130,0,25022176,15,1,0,27,0,1,0,0,1,0,3,29,2,3500,0,6,10,50,2,500,17,10,1,0,0,11,"$GNGGA,112931.00,5206.12356,N,03007.01982,E,2,12,0.65,135.7,M,24.5,M,,0000*4F
",0,0,2,200,-41,-45,-46
"",15.5,37.4,29.5,0.5,41,2,215,130,0,25022176,16,1,0,28,0,1,0,0,1,0,3,29,2,3500,0,6,10,50,2,500,17,10,1,0,0,11,"$GNGGA,113657.00,5206.13090,N,03007.04577,E,2,12,0.66,136.9,M,24.5,M,,0000*44
",0,0,2,145,-60,-64,-66
"",15.6,40.3,28.0,0.5,35,2,208,130,0,25022176,17,1,0,29,0,1,0,0,1,0,3,29,2,3500,0,6,10,50,2,500,17,10,1,0,0,11,"$GNGGA,115129.00,5206.09972,N,03006.93277,E,2,12,0.68,141.8,M,24.5,M,,0000*45
",0,0,2,111,26,21,21
"",17.9,50.6,29.1,0.5,68,2,215,130,0,25022176,18,1,0,30,0,1,0,0,1,0,3,29,2,3500,0,6,10,50,2,500,17,10,1,0,0,11,"$GNGGA,120038.00,5206.08099,N,03006.91527,E,2,12,0.94,140.4,M,24.5,M,,0000*41
",0,0,2,89,-66,-69,-70
"",14.8,77.8,28.7,0.4,40,2,218,130,0,25022176,19,1,0,31,0,1,0,0,1,0,3,29,2,3500,0,6,10,50,2,500,17,10,1,0,0,11,"$GNGGA,120927.00,5206.07109,N,03006.94247,E,2,12,0.75,139.8,M,24.5,M,,0000*48
",0,0,2,78,6,2,1
"",15.5,94.1,31.5,0.5,32,2,216,130,0,25022176,20,1,0,32,0,1,0,0,1,0,3,29,2,3500,0,6,10,50,2,500,17,10,1,0,0,11,"$GNGGA,121746.00,5206.06018,N,03006.97150,E,1,12,0.75,142.1,M,24.5,M,,*40
",0,0,2,110,-34,-39,-39
"",16.4,42.3,28.5,0.4,47,2,212,130,0,25022176,21,1,0,33,0,1,0,0,1,0,3,29,2,3500,0,6,10,50,2,500,17,10,1,0,0,11,"$GNGGA,122848.00,5206.04775,N,03007.00366,E,2,12,0.70,145.7,M,24.5,M,,0000*43
",0,0,2,108,-67,-71,-72
"",19.2,46.0,28.6,0.4,58,2,213,130,0,25022176,22,1,0,34,0,1,0,0,1,0,3,29,2,3500,0,6,10,50,2,500,17,10,1,0,0,11,"$GNGGA,123905.00,5206.03880,N,03007.02237,E,2,12,0.60,146.5,M,24.5,M,,0000*4F
",0,0,2,183,1,-5,-6
"",16.7,6.6,28.4,0.4,36,2,208,130,0,25022176,23,1,0,35,0,1,0,0,1,0,3,29,2,3500,0,6,10,50,2,500,17,10,1,0,0,11,"$GNGGA,124743.00,5206.04155,N,03007.07430,E,2,12,0.63,139.1,M,24.5,M,,0000*49
",0,0,2,130,-113,-119,-121
"",16.1,6.6,28.6,0.4,38,2,211,130,0,25022176,24,1,0,36,0,1,0,0,1,0,3,29,2,3500,0,6,10,50,2,500,17,10,1,0,0,11,"$GNGGA,132930.00,5206.02703,N,03007.10135,E,2,12,0.86,132.5,M,24.5,M,,0000*45
",0,0,2,68,6,3,3
"",15.7,35.8,28.8,0.6,99,2,180,133,0,25022176,0,1,0,37,0,1,0,0,1,0,3,29,2,3500,0,6,10,50,2,500,17,10,1,0,0,11,"$GNGGA,101052.00,5206.66091,N,03008.52649,E,1,12,0.64,128.8,M,24.5,M,,*4A
",0,0,2,451,-244,-248,-250
"",15.5,59.4,29.0,0.5,93,2,205,132,0,25022176,1,1,0,38,0,1,0,0,1,0,3,29,2,3500,0,6,10,50,2,500,17,10,1,0,0,11,"$GNGGA,102125.00,5206.64231,N,03008.55206,E,2,12,0.58,134.7,M,24.5,M,,0000*44
",0,0,2,268,195,190,188
"",16.7,7.9,29.0,0.4,97,2,214,130,0,25022176,2,1,0,39,0,1,0,0,1,0,3,29,2,3500,0,6,10,50,2,500,17,10,1,0,0,11,"$GNGGA,102659.00,5206.61487,N,03008.55384,E,2,12,0.57,130.2,M,24.5,M,,0000*43
",0,0,2,289,-1,-6,-8
"",42.0,55.1,28.8,0.5,99,2,206,130,0,25022176,3,1,0,40,0,1,0,0,1,0,3,29,2,3500,0,6,10,50,2,500,17,10,1,0,0,11,"$GNGGA,104219.00,5206.60351,N,03008.58615,E,2,12,0.58,136.8,M,24.5,M,,0000*4B
",0,0,0,6126,1689,1672,1663
"",17.1,59.0,29.0,0.5,93,2,196,130,0,25022176,4,1,0,41,0,1,0,0,1,0,3,29,2,3500,0,6,10,50,2,500,17,10,1,0,0,11,"$GNGGA,104750.00,5206.59093,N,03008.61491,E,2,12,0.57,136.2,M,24.5,M,,0000*45
",0,0,2,412,-207,-209,-208
"",15.2,55.6,28.8,0.5,56,2,217,130,0,25022176,5,1,0,42,0,1,0,0,1,0,3,29,2,3500,0,6,10,50,2,500,17,10,1,0,0,11,"$GNGGA,105136.00,5206.55856,N,03008.62762,E,2,12,0.65,136.4,M,24.5,M,,0000*44
",0,0,2,571,86,82,81
"",14.6,51.8,29.1,0.4,99,2,219,130,0,25022176,6,1,0,43,0,1,0,0,1,0,3,29,2,3500,0,6,10,50,2,500,17,10,1,0,0,11,"$GNGGA,105551.00,5206.54591,N,03008.60583,E,2,12,0.59,134.5,M,24.5,M,,0000*45
",0,0,2,396,-104,-108,-111
"",15.2,36.6,29.0,0.4,87,2,215,130,0,25022176,7,1,0,44,0,1,0,0,1,0,3,29,2,3500,0,6,10,50,2,500,17,10,1,0,0,11,"$GNGGA,105927.00,5206.52624,N,03008.58987,E,2,12,0.57,128.7,M,24.5,M,,0000*41
",0,0,2,618,347,348,352
"",14.6,38.6,29.1,0.4,86,2,207,130,0,25022176,8,1,0,45,0,1,0,0,1,0,3,29,2,3500,0,6,10,50,2,500,17,10,1,0,0,11,"$GNGGA,110218.00,5206.51252,N,03008.61936,E,2,12,0.57,136.3,M,24.5,M,,0000*4F
",0,0,2,301,112,106,104
"",16.2,6.7,29.1,0.5,96,2,199,130,0,25022176,9,1,0,46,0,1,0,0,1,0,3,29,2,3500,0,6,10,50,2,500,17,10,1,0,0,11,"$GNGGA,110509.00,5206.50337,N,03008.64070,E,2,12,0.57,135.7,M,24.5,M,,0000*42
",0,0,2,384,249,244,243
"",15.2,47.9,29.2,0.4,71,2,211,130,0,25022176,10,1,0,47,0,1,0,0,1,0,3,29,2,3500,0,6,10,50,2,500,17,10,1,0,0,11,"$GNGGA,110705.00,5206.49231,N,03008.67424,E,2,12,0.64,142.2,M,24.5,M,,0000*40
",0,0,2,408,18,14,12
"",15.7,31.7,29.1,0.5,28,2,188,130,0,25022176,11,1,0,48,0,1,0,0,1,0,3,29,2,3500,0,6,10,50,2,500,17,10,1,0,0,11,"$GNGGA,111043.00,5206.50531,N,03008.69451,E,1,12,0.63,146.8,M,24.5,M,,*4D
",0,0,2,368,191,189,189
"",16.7,61.2,29.0,0.5,73,2,211,130,0,25022176,12,1,0,49,0,1,0,0,1,0,3,29,2,3500,0,6,10,50,2,500,17,10,1,0,0,11,"$GNGGA,111334.00,5206.49376,N,03008.72020,E,2,12,0.62,139.2,M,24.5,M,,0000*4B
",0,0,2,476,477,472,471
"",14.8,55.7,28.9,0.4,61,2,221,130,0,25022176,13,1,0,50,0,1,0,0,1,0,3,29,2,3500,0,6,10,50,2,500,17,10,1,0,0,11,"$GNGGA,111958.00,5206.47922,N,03008.70003,E,2,12,0.61,144.0,M,24.5,M,,0000*46
",0,0,2,945,29,25,23
"",15.1,37.2,29.0,0.5,45,2,209,130,0,25022176,14,1,0,51,0,1,0,0,1,0,3,29,2,3500,0,6,10,50,2,500,17,10,1,0,0,11,"$GNGGA,112447.00,5206.46583,N,03008.73295,E,1,12,0.64,137.3,M,24.5,M,,*4F
",0,0,2,381,7,5,4
"",16.0,40.8,28.9,0.4,77,2,214,130,0,25022176,15,1,0,52,0,1,0,0,1,0,3,29,2,3500,0,6,10,50,2,500,17,10,1,0,0,11,"$GNGGA,112758.00,5206.48021,N,03008.75072,E,2,12,0.67,144.2,M,24.5,M,,0000*49
",0,0,2,229,-52,-57,-59
"",14.0,42.8,28.8,0.4,56,2,211,130,0,25022176,16,1,0,53,0,1,0,0,1,0,3,29,2,3500,0,6,10,50,2,500,17,10,1,0,0,11,"$GNGGA,113300.00,5206.43198,N,03008.69283,E,2,12,0.69,140.2,M,24.5,M,,0000*42
",0,0,2,191,-34,-40,-41
"",14.3,42.1,29.1,0.5,75,2,209,130,0,25022176,17,1,0,54,0,1,0,0,1,0,3,29,2,3500,0,6,10,50,2,500,17,10,1,0,0,11,"$GNGGA,114401.00,5206.38471,N,03008.85227,E,2,12,0.64,129.1,M,24.5,M,,0000*40
",0,0,2,396,161,157,157
"",15.0,7.2,28.7,0.4,42,2,202,130,0,25022176,18,1,0,55,0,1,0,0,1,0,3,29,2,3500,0,6,10,50,2,500,17,10,1,0,0,11,"$GNGGA,120144.00,5206.40325,N,03008.82675,E,2,12,0.71,131.1,M,24.5,M,,0000*43
",0,0,2,262,-64,-68,-67
"",14.7,6.5,28.7,0.5,54,2,206,130,0,25022176,19,1,0,56,0,1,0,0,1,0,3,29,2,3500,0,6,10,50,2,500,17,10,1,0,0,11,"$GNGGA,120541.00,5206.40768,N,03008.80507,E,2,12,0.67,138.6,M,24.5,M,,0000*42
",0,0,2,264,-18,-23,-23
"",16.5,6.3,28.6,0.5,77,2,206,130,0,25022176,20,1,0,57,0,1,0,0,1,0,3,29,2,3500,0,6,10,50,2,500,17,10,1,0,0,11,"$GNGGA,121111.00,5206.40112,N,03008.75217,E,2,12,0.64,147.4,M,24.5,M,,0000*4C
",0,0,2,320,309,305,308
"",15.6,51.9,28.6,0.4,70,2,212,130,0,25022176,21,1,0,58,0,1,0,0,1,0,3,29,2,3500,0,6,10,50,2,500,17,10,1,0,0,11,"$GNGGA,121439.00,5206.41320,N,03008.71991,E,2,12,0.81,136.8,M,24.5,M,,0000*41
",0,0,2,326,-120,-125,-127
"",15.4,30.7,28.6,0.6,92,2,182,130,0,25022176,22,1,0,59,0,1,0,0,1,0,3,29,2,3500,0,6,10,50,2,500,17,10,1,0,0,11,"$GNGGA,122214.00,5206.41860,N,03008.64764,E,2,12,0.64,152.1,M,24.5,M,,0000*44
",0,0,2,293,-91,-96,-98
"",17.9,6.3,28.5,0.4,71,2,204,130,0,25022176,23,1,0,60,0,1,0,0,1,0,3,29,2,3500,0,6,10,50,2,500,17,10,1,0,0,11,"$GNGGA,122635.00,5206.41981,N,03008.58984,E,2,12,0.66,137.8,M,24.5,M,,0000*4A
",0,0,2,303,-242,-247,-249
"",17.1,40.4,28.5,0.5,95,2,198,130,0,25022176,24,1,0,61,0,1,0,0,1,0,3,29,2,3500,0,6,10,50,2,500,17,10,1,0,0,11,"$GNGGA,123219.00,5206.42756,N,03008.56423,E,2,12,0.74,133.4,M,24.5,M,,0000*43
",0,0,2,333,-235,-238,-238
"",15.0,55.4,28.6,0.4,92,2,221,130,0,25022176,25,1,0,62,0,1,0,0,1,0,3,29,2,3500,0,6,10,50,2,500,17,10,1,0,0,11,"$GNGGA,130216.00,5206.43674,N,03008.53715,E,2,12,0.69,137.4,M,24.5,M,,0000*45
",0,0,2,374,74,69,69
"",13.4,46.5,28.5,0.4,61,2,208,130,0,25022176,26,1,0,63,0,1,0,0,1,0,3,29,2,3500,0,6,10,50,2,500,17,10,1,0,0,11,"$GNGGA,131357.00,5206.45149,N,03008.51948,E,1,12,0.78,137.5,M,24.5,M,,*49
",0,0,2,453,-171,-176,-178
"",17.2,85.2,28.6,0.4,87,2,217,130,0,25022176,27,1,0,64,0,1,0,0,1,0,3,29,2,3500,0,6,10,50,2,500,17,10,1,0,0,11,"$GNGGA,132928.00,5206.36079,N,03008.61803,E,2,12,0.94,139.9,M,24.5,M,,0000*40
",0,0,2,143,-57,-64,-67
"",13.7,35.0,28.6,0.5,91,2,199,130,0,25022176,28,1,0,65,0,1,0,0,1,0,3,29,2,3500,0,6,10,50,2,500,17,10,1,0,0,11,"$GNGGA,135708.00,5206.35201,N,03008.63583,E,2,12,0.75,142.0,M,24.5,M,,0000*48
",0,0,2,217,-58,-64,-65
"",13.4,7.4,28.8,0.4,96,2,213,131,0,25022176,0,1,0,66,0,1,0,0,1,0,3,29,2,3500,0,6,10,50,2,500,17,10,1,0,0,11,"$GNGGA,144052.00,5207.21666,N,03009.31259,E,1,12,0.85,128.5,M,24.5,M,,*44
",0,0,2,331,-112,-115,-113
"",15.0,41.1,28.8,0.5,95,2,205,131,0,25022176,1,1,0,67,0,1,0,0,1,0,3,29,2,3500,0,6,10,50,2,500,17,10,1,0,0,11,"$GNGGA,145803.00,5207.21916,N,03009.22564,E,2,12,0.73,127.1,M,24.5,M,,0000*4B
",0,0,2,136,53,49,47
"",14.5,74.9,28.7,0.5,87,2,209,130,0,25022176,2,1,0,68,0,1,0,0,1,0,3,29,2,3500,0,6,10,50,2,500,17,10,1,0,0,11,"$GNGGA,150550.00,5207.25351,N,03009.21631,E,2,12,0.90,133.6,M,24.5,M,,0000*46
",0,0,2,205,46,41,37
"",15.0,92.4,28.8,0.4,98,2,216,130,0,25022176,3,1,0,69,0,1,0,0,1,0,3,29,2,3500,0,6,10,50,2,500,17,10,1,0,0,11,"$GNGGA,151647.00,5207.29084,N,03009.26050,E,2,12,0.64,131.0,M,24.5,M,,0000*4C
",0,0,2,256,-199,-205,-205
"",15.5,54.3,28.7,0.5,96,2,195,130,0,25022176,4,1,0,70,0,1,0,0,1,0,3,29,2,3500,0,6,10,50,2,500,17,10,1,0,0,11,"$GNGGA,152339.00,5207.33287,N,03009.27822,E,2,12,1.05,130.7,M,24.5,M,,0000*45
",0,0,2,215,6,1,1
"",16.2,6.8,28.8,0.4,80,2,208,130,0,25022176,5,1,0,71,0,1,0,0,1,0,3,29,2,3500,0,6,10,50,2,500,17,10,1,0,0,11,"$GNGGA,153036.00,5207.34331,N,03009.31425,E,2,12,0.66,133.1,M,24.5,M,,0000*4E
",0,0,2,212,52,49,49
"",15.5,7.2,28.7,0.5,93,2,207,130,0,25022176,6,1,0,72,0,1,0,0,1,0,3,29,2,3500,0,6,10,50,2,500,17,10,1,0,0,11,"$GNGGA,153642.00,5207.37555,N,03009.31428,E,2,12,0.60,132.6,M,24.5,M,,0000*41
",0,0,2,198,98,94,94
"",15.3,71.0,28.6,0.4,99,2,219,130,0,25022176,7,1,0,73,0,1,0,0,1,0,3,29,2,3500,0,6,10,50,2,500,17,10,1,0,0,11,"$GNGGA,154350.00,5207.38591,N,03009.27467,E,2,12,0.73,141.6,M,24.5,M,,0000*4D
",0,0,2,226,202,199,199
"",15.0,40.5,28.6,0.4,66,2,216,130,0,25022176,8,1,0,74,0,1,0,0,1,0,3,29,2,3500,0,6,10,50,2,500,17,10,1,0,0,11,"$GNGGA,154945.00,5207.39679,N,03009.30874,E,2,12,0.69,137.9,M,24.5,M,,0000*4A
",0,0,2,237,-5,-8,-8
"",16.2,32.8,28.6,0.5,92,2,204,130,0,25022176,9,1,0,75,0,1,0,0,1,0,3,29,2,3500,0,6,10,50,2,500,17,10,1,0,0,11,"$GNGGA,155939.00,5207.42946,N,03009.30364,E,2,12,0.70,133.5,M,24.5,M,,0000*45
",0,0,2,267,166,161,158
"",15.9,43.9,28.6,0.5,98,2,207,130,0,25022176,10,1,0,76,0,1,0,0,1,0,3,29,2,3500,0,6,10,50,2,500,17,10,1,0,0,11,"$GNGGA,160326.00,5207.46228,N,03009.27904,E,2,12,0.75,135.0,M,24.5,M,,0000*4C
",0,0,2,284,-131,-135,-134
"",12.9,37.2,28.5,0.4,98,2,211,130,0,25022176,11,1,0,77,0,1,0,0,1,0,3,29,2,3500,0,6,10,50,2,500,17,10,1,0,0,11,"$GNGGA,161948.00,5207.48945,N,03009.26508,E,2,12,0.66,135.1,M,24.5,M,,0000*43
",0,0,2,304,6,0,-1
"",15.3,7.2,28.5,0.4,99,2,205,130,0,25022176,12,1,0,78,0,1,0,0,1,0,3,29,2,3500,0,6,10,50,2,500,17,10,1,0,0,11,"$GNGGA,162541.00,5207.50036,N,03009.25201,E,2,12,0.72,131.6,M,24.5,M,,0000*4A
",0,0,2,197,0,-5,-6
"",16.7,44.1,28.5,0.4,91,2,208,130,0,25022176,13,1,0,79,0,1,0,0,1,0,3,29,2,3500,0,6,10,50,2,500,17,10,1,0,0,11,"$GNGGA,163026.00,5207.51715,N,03009.25640,E,2,12,0.72,140.5,M,24.5,M,,0000*4C
",0,0,2,209,145,141,140
"",17.8,7.6,28.5,0.5,99,2,209,130,0,25022176,14,1,0,80,0,1,0,0,1,0,3,29,2,3500,0,6,10,50,2,500,17,10,1,0,0,11,"$GNGGA,163510.00,5207.53542,N,03009.23426,E,2,12,0.72,137.8,M,24.5,M,,0000*47
",0,0,2,196,61,56,55
"",15.1,77.1,28.5,0.4,99,2,215,130,0,25022176,15,1,0,81,0,1,0,0,1,0,3,29,2,3500,0,6,10,50,2,500,17,10,1,0,0,11,"$GNGGA,164258.00,5207.56479,N,03009.22337,E,2,12,0.68,137.8,M,24.5,M,,0000*4A
",0,0,2,138,28,22,20
"",16.3,56.9,28.4,0.5,99,2,200,130,0,25022176,16,1,0,82,0,1,0,0,1,0,3,29,2,3500,0,6,10,50,2,500,17,10,1,0,0,11,"$GNGGA,164857.00,5207.57334,N,03009.20916,E,2,12,0.64,145.3,M,24.5,M,,0000*49
",0,0,2,263,-109,-114,-115
"",15.1,36.9,28.4,0.4,97,2,209,130,0,25022176,17,1,0,83,0,1,0,0,1,0,3,29,2,3500,0,6,10,50,2,500,17,10,1,0,0,11,"$GNGGA,165536.00,5207.55859,N,03009.18253,E,2,12,0.62,135.5,M,24.5,M,,0000*46
",0,0,2,205,-24,-29,-31
"",17.0,7.6,28.4,0.5,99,2,206,130,0,25022176,18,1,0,84,0,1,0,0,1,0,3,29,2,3500,0,6,10,50,2,500,17,10,1,0,0,11,"$GNGGA,170048.00,5207.57656,N,03009.15375,E,2,12,0.63,137.4,M,24.5,M,,0000*47
",0,0,2,114,-49,-53,-55
"",16.4,35.7,28.4,0.5,90,2,200,130,0,25022176,19,1,0,85,0,1,0,0,1,0,3,29,2,3500,0,6,10,50,2,500,17,10,1,0,0,11,"$GNGGA,170646.00,5207.60761,N,03009.17946,E,2,12,0.62,136.9,M,24.5,M,,0000*4B
",0,0,2,342,-93,-98,-99
"",15.7,6.8,28.4,0.5,99,2,218,130,0,25022176,20,1,0,86,0,1,0,0,1,0,3,29,2,3500,0,6,10,50,2,500,17,10,1,0,0,11,"$GNGGA,171143.00,5207.59901,N,03009.13643,E,2,12,0.70,136.1,M,24.5,M,,0000*4F
",0,0,2,435,-274,-280,-283
"",13.1,44.0,28.4,0.5,86,2,211,130,0,25022176,21,1,0,87,0,1,0,0,1,0,3,29,2,3500,0,6,10,50,2,500,17,10,1,0,0,11,"$GNGGA,171726.00,5207.56228,N,03009.09803,E,2,12,0.60,140.5,M,24.5,M,,0000*40
",0,0,2,376,274,268,265
"",15.4,53.2,28.3,0.5,95,2,204,130,0,25022176,22,1,0,88,0,1,0,0,1,0,3,29,2,3500,0,6,10,50,2,500,17,10,1,0,0,11,"$GNGGA,172628.00,5207.54441,N,03009.02575,E,2,12,0.66,133.2,M,24.5,M,,0000*45
",0,0,2,145,67,61,61
"",16.9,6.9,28.0,0.5,99,2,198,130,0,25022176,23,1,0,89,0,1,0,0,1,0,3,29,2,3500,0,6,10,50,2,500,17,10,1,0,0,11,"$GNGGA,181121.00,5207.55290,N,03009.00177,E,2,12,0.62,135.5,M,24.5,M,,0000*4D
",0,0,2,419,27,23,25
"",14.7,38.0,28.0,0.6,99,2,188,130,0,25022176,24,1,0,90,0,1,0,0,1,0,3,29,2,3500,0,6,10,50,2,500,17,10,1,0,0,11,"$GNGGA,181651.00,5207.56796,N,03008.97769,E,2,12,0.61,134.8,M,24.5,M,,0000*44
",0,0,2,177,-49,-54,-54
"",14.9,8.5,28.0,0.5,99,2,200,130,0,25022176,25,1,0,91,0,1,0,0,1,0,3,29,2,3500,0,6,10,50,2,500,17,10,1,0,0,11,"$GNGGA,182132.00,5207.60031,N,03008.96476,E,2,12,0.68,139.8,M,24.5,M,,0000*42
",0,0,2,346,-117,-120,-120
"",15.7,39.4,28.0,0.5,99,2,198,130,0,25022176,26,1,0,92,0,1,0,0,1,0,3,29,2,3500,0,6,10,50,2,500,17,10,1,0,0,11,"$GNGGA,182642.00,5207.60529,N,03008.93132,E,2,12,0.55,136.2,M,24.5,M,,0000*45
",0,0,2,292,44,40,41
"",16.6,42.8,28.0,0.4,98,2,212,130,0,25022176,27,1,0,93,0,1,0,0,1,0,3,29,2,3500,0,6,10,50,2,500,17,10,1,0,0,11,"$GNGGA,184253.00,5207.32814,N,03008.66317,E,1,12,0.57,142.0,M,24.5,M,,*4C
",0,0,2,355,39,33,31
"",17.9,46.6,28.0,0.5,98,2,192,130,0,25022176,28,1,0,94,0,1,0,0,1,0,3,29,2,3500,0,6,10,50,2,500,17,10,1,0,0,11,"$GNGGA,184432.00,5207.31352,N,03008.64698,E,1,12,0.63,141.0,M,24.5,M,,*43
",0,0,2,388,-75,-77,-77
"",17.7,6.9,28.0,0.4,96,2,202,130,0,25022176,29,1,0,95,0,1,0,0,1,0,3,29,2,3500,0,6,10,50,2,500,17,10,1,0,0,11,"$GNGGA,184712.00,5207.32619,N,03008.62381,E,2,12,0.64,142.8,M,24.5,M,,0000*4F
",0,0,2,544,155,149,146
"",16.9,8.0,28.0,0.5,89,2,190,130,0,25022176,30,1,0,96,0,1,0,0,1,0,3,29,2,3500,0,6,10,50,2,500,17,10,1,0,0,11,"$GNGGA,184935.00,5207.33554,N,03008.59456,E,1,12,0.71,144.2,M,24.5,M,,*41
",0,0,2,224,-139,-141,-140
"",17.9,44.7,28.1,0.5,99,2,190,132,0,25022176,0,1,0,97,0,1,0,0,1,0,3,29,2,3500,0,6,10,50,2,500,17,10,1,0,0,11,"$GNGGA,175925.00,5208.34697,N,03011.28049,E,1,12,0.62,132.3,M,24.4,M,,*4D
",0,0,2,247,-89,-94,-95
"",16.5,40.8,28.1,0.5,99,2,198,131,0,25022176,1,1,0,98,0,1,0,0,1,0,3,29,2,3500,0,6,10,50,2,500,17,10,1,0,0,11,"$GNGGA,180116.00,5208.34222,N,03011.23071,E,1,12,0.64,131.6,M,24.4,M,,*45
",0,0,2,177,68,63,61
"",17.5,6.7,27.7,0.5,92,2,195,131,0,25022176,2,1,0,99,0,1,0,0,1,0,3,29,2,3500,0,6,10,50,2,500,17,10,1,0,0,11,"$GNGGA,180542.00,5208.33724,N,03011.18593,E,2,12,0.60,130.7,M,24.4,M,,0000*42
",0,0,2,355,184,181,180
"",17.7,4.7,28.0,0.5,99,2,208,130,0,25022176,3,1,0,100,0,1,0,0,1,0,3,29,2,3500,0,6,10,50,2,500,17,10,1,0,0,11,"$GNGGA,181118.00,5208.34949,N,03011.15578,E,2,12,0.62,135.6,M,24.4,M,,0000*44
",0,0,2,161,-17,-23,-24
"",16.9,43.7,28.0,0.5,87,2,207,130,0,25022176,4,1,0,101,0,1,0,0,1,0,3,29,2,3500,0,6,10,50,2,500,17,10,1,0,0,11,"$GNGGA,183107.00,5208.36093,N,03011.12691,E,2,12,0.62,132.0,M,24.4,M,,0000*46
",0,0,2,292,-98,-103,-106
"",15.7,7.1,28.0,0.5,95,2,203,130,0,25022176,5,1,0,102,0,1,0,0,1,0,3,29,2,3500,0,6,10,50,2,500,17,10,1,0,0,11,"$GNGGA,183533.00,5208.37400,N,03011.09916,E,2,12,0.60,134.6,M,24.4,M,,0000*42
",0,0,2,146,35,32,32
"",17.7,6.5,28.0,0.5,98,2,204,130,0,25022176,6,1,0,103,0,1,0,0,1,0,3,29,2,3500,0,6,10,50,2,500,17,10,1,0,0,11,"$GNGGA,184115.00,5208.38631,N,03011.07193,E,2,12,0.66,132.9,M,24.4,M,,0000*4E
",0,0,2,176,124,119,119
"",17.3,56.7,28.0,0.5,99,2,195,130,0,25022176,7,1,0,104,0,1,0,0,1,0,3,29,2,3500,0,6,10,50,2,500,17,10,1,0,0,11,"$GNGGA,184644.00,5208.40017,N,03011.04175,E,1,12,0.66,133.5,M,24.4,M,,*45
",0,0,2,514,-9,-15,-16
"",15.3,6.5,28.0,0.5,85,2,180,130,0,25022176,8,1,0,105,0,1,0,0,1,0,3,29,2,3500,0,6,10,50,2,500,17,10,1,0,0,11,"$GNGGA,185051.00,5208.41239,N,03011.01310,E,2,12,0.62,133.0,M,24.4,M,,0000*4F
",0,0,2,171,19,15,14
"",19.1,7.9,27.9,0.5,84,2,205,130,0,25022176,9,1,0,106,0,1,0,0,1,0,3,29,2,3500,0,6,10,50,2,500,17,10,1,0,0,11,"$GNGGA,185620.00,5208.42521,N,03010.98449,E,1,12,0.61,136.6,M,24.4,M,,*4B
",0,0,2,180,87,84,84
"",18.1,6.7,27.9,0.4,99,2,216,130,0,25022176,10,1,0,107,0,1,0,0,1,0,3,29,2,3500,0,6,10,50,2,500,17,10,1,0,0,11,"$GNGGA,190126.00,5208.43628,N,03010.95385,E,2,12,0.56,134.3,M,24.4,M,,0000*4F
",0,0,2,114,-67,-72,-72
"",19.4,40.2,27.9,0.4,87,2,209,130,0,25022176,11,1,0,108,0,1,0,0,1,0,3,29,2,3500,0,6,10,50,2,500,17,10,1,0,0,11,"$GNGGA,190644.00,5208.44888,N,03010.92599,E,1,12,0.59,135.5,M,24.4,M,,*48
",0,0,2,315,26,22,22
"",19.8,6.9,27.9,0.5,97,2,206,130,0,25022176,12,1,0,109,0,1,0,0,1,0,3,29,2,3500,0,6,10,50,2,500,17,10,1,0,0,11,"$GNGGA,191640.00,5208.46076,N,03010.89652,E,2,12,0.61,132.6,M,24.4,M,,0000*44
",0,0,2,132,56,53,53
"",17.9,6.7,27.9,0.4,99,2,213,129,0,25022176,13,1,0,110,0,1,0,0,1,0,3,29,2,3500,0,6,10,50,2,500,17,10,1,0,0,11,"$GNGGA,192109.00,5208.47376,N,03010.86744,E,2,12,0.58,134.0,M,24.4,M,,0000*4C
",0,0,2,181,12,9,9
"",16.5,6.4,27.9,0.5,99,2,180,130,0,25022176,14,1,0,111,0,1,0,0,1,0,3,29,2,3500,0,6,10,50,2,500,17,10,1,0,0,11,"$GNGGA,192646.00,5208.48567,N,03010.83888,E,2,12,0.62,133.0,M,24.4,M,,0000*4D
",0,0,2,168,-60,-64,-63
"",19.4,7.4,27.9,0.6,96,2,188,130,0,25022176,15,1,0,112,0,1,0,0,1,0,3,29,2,3500,0,6,10,50,2,500,17,10,1,0,0,11,"$GNGGA,193225.00,5208.49876,N,03010.80980,E,2,12,0.62,131.9,M,24.4,M,,0000*40
",0,0,2,149,16,14,15
"",15.8,42.3,27.9,0.5,89,2,208,130,0,25022176,16,1,0,113,0,1,0,0,1,0,3,29,2,3500,0,6,10,50,2,500,17,10,1,0,0,11,"$GNGGA,194120.00,5208.50767,N,03010.77106,E,2,12,0.64,132.1,M,24.4,M,,0000*45
",0,0,2,91,34,30,29
"",15.0,48.8,28.0,0.5,99,2,192,130,0,25022176,17,1,0,114,0,1,0,0,1,0,3,29,2,3500,0,6,10,50,2,500,17,10,1,0,0,11,"$GNGGA,194710.00,5208.48294,N,03010.75200,E,2,12,0.69,129.3,M,24.4,M,,0000*42
",0,0,2,112,0,-3,-4
"",16.8,34.1,27.9,0.4,99,2,203,130,0,25022176,18,1,0,115,0,1,0,0,1,0,3,29,2,3500,0,6,10,50,2,500,17,10,1,0,0,11,"$GNGGA,195342.00,5208.47223,N,03010.78136,E,2,12,0.57,133.1,M,24.4,M,,0000*4C
",0,0,2,177,19,15,15
"",16.4,7.2,27.8,0.6,99,2,183,130,0,25022176,19,1,0,116,0,1,0,0,1,0,3,29,2,3500,0,6,10,50,2,500,17,10,1,0,0,11,"$GNGGA,200111.00,5208.45495,N,03010.76911,E,2,12,0.55,134.7,M,24.4,M,,0000*4E
",0,0,2,157,-56,-60,-61
"",16.9,7.7,27.7,0.5,99,2,195,130,0,25022176,20,1,0,117,0,1,0,0,1,0,3,29,2,3500,0,6,10,50,2,500,17,10,1,0,0,11,"$GNGGA,201419.00,5208.33358,N,03010.63496,E,2,12,0.66,134.9,M,24.4,M,,0000*4D
",0,0,2,127,-64,-69,-69
"",15.9,100.0,27.9,0.5,99,2,206,130,0,25022176,21,1,0,118,0,1,0,0,1,0,3,29,2,3500,0,6,10,50,2,500,17,10,1,0,0,11,"$GNGGA,201917.00,5208.33375,N,03010.68010,E,1,12,0.67,133.8,M,24.4,M,,*44
",0,0,2,345,-120,-126,-128
"",16.0,44.7,28.5,0.4,99,2,216,130,0,25022176,22,1,0,119,0,1,0,0,1,0,3,29,2,3500,0,6,10,50,2,500,17,10,1,0,0,11,"$GNGGA,202246.00,5208.32409,N,03010.71280,E,1,12,0.81,129.6,M,24.4,M,,*4B
",0,0,2,133,-59,-63,-65
"",16.1,47.6,27.8,0.5,96,2,208,130,0,25022176,23,1,0,120,0,1,0,0,1,0,3,29,2,3500,0,6,10,50,2,500,17,10,1,0,0,11,"$GNGGA,202548.00,5208.32748,N,03010.74961,E,2,12,0.65,138.2,M,24.4,M,,0000*48
",0,0,2,141,22,17,16
"",16.0,7.0,27.9,0.4,87,2,196,130,0,25022176,24,1,0,121,0,1,0,0,1,0,3,29,2,3500,0,6,10,50,2,500,17,10,1,0,0,11,"$GNGGA,202736.00,5208.31725,N,03010.77944,E,2,12,0.69,133.4,M,24.4,M,,0000*4E
",0,0,2,126,-107,-110,-111
"",16.5,64.7,27.9,0.4,99,2,208,130,0,25022176,25,1,0,122,0,1,0,0,1,0,3,29,2,3500,0,6,10,50,2,500,17,10,1,0,0,11,"$GNGGA,203022.00,5208.30098,N,03010.75527,E,2,12,0.65,136.5,M,24.4,M,,0000*4E
",0,0,2,145,-1,-7,-9
"",19.5,7.0,30.1,0.5,85,2,193,133,0,25022176,0,1,0,123,0,1,0,0,1,0,3,29,2,3500,0,6,10,50,2,500,17,10,1,0,0,11,"$GNGGA,185030.00,5208.94080,N,03011.47058,E,1,12,0.82,143.7,M,24.4,M,,*40
",0,0,2,190,-27,-32,-33
"",15.7,55.1,28.7,0.5,99,2,208,133,0,25022176,1,1,0,124,0,1,0,0,1,0,3,29,2,3500,0,6,10,50,2,500,17,10,1,0,0,11,"$GNGGA,185537.00,5208.95793,N,03011.44934,E,1,12,0.69,142.1,M,24.4,M,,*44
",0,0,2,150,57,51,50
"",17.2,43.3,28.0,0.4,99,2,211,132,0,25022176,2,1,0,125,0,1,0,0,1,0,3,29,2,3500,0,6,10,50,2,500,17,10,1,0,0,11,"$GNGGA,185723.00,5208.96940,N,03011.46316,E,1,12,0.63,152.1,M,24.4,M,,*43
",0,0,2,179,-25,-29,-31
"",19.2,7.2,27.1,0.6,99,2,188,131,0,25022176,3,1,0,126,0,1,0,0,1,0,3,29,2,3500,0,6,10,50,2,500,17,10,1,0,0,11,"$GNGGA,190130.00,5208.95083,N,03011.51102,E,2,12,0.65,152.0,M,24.4,M,,0000*43
",0,0,2,302,-266,-270,-270
"",15.6,38.1,28.3,0.4,99,2,214,131,0,25022176,4,1,0,127,0,1,0,0,1,0,3,29,2,3500,0,6,10,50,2,500,17,10,1,0,0,11,"$GNGGA,190717.00,5208.95768,N,03011.49443,E,2,12,0.71,140.0,M,24.4,M,,0000*4D
",0,0,2,185,80,78,78
"",16.8,35.8,27.3,0.4,99,2,207,131,0,25022176,5,1,0,128,0,1,0,0,1,0,3,29,2,3500,0,6,10,50,2,500,17,10,1,0,0,11,"$GNGGA,191313.00,5208.99379,N,03011.46009,E,2,12,0.81,158.8,M,24.4,M,,0000*4F
",0,0,2,427,-77,-82,-85
"",17.0,8.9,27.2,0.4,99,2,206,130,0,25022176,6,1,0,129,0,1,0,0,1,0,3,29,2,3500,0,6,10,50,2,500,17,10,1,0,0,11,"$GNGGA,191648.00,5209.01654,N,03011.43047,E,2,12,0.81,141.8,M,24.4,M,,0000*49
",0,0,2,225,-174,-178,-180
"",18.1,42.9,28.8,0.4,99,2,215,130,0,25022176,7,1,0,130,0,1,0,0,1,0,3,29,2,3500,0,6,10,50,2,500,17,10,1,0,0,11,"$GNGGA,192632.00,5209.02489,N,03011.40535,E,2,12,0.71,147.2,M,24.4,M,,0000*46
",0,0,2,98,-17,-20,-21
"",17.5,6.8,29.4,0.4,99,2,213,130,0,25022176,8,1,0,131,0,1,0,0,1,0,3,29,2,3500,0,6,10,50,2,500,17,10,1,0,0,11,"$GNGGA,193840.00,5209.05110,N,03011.38840,E,2,12,0.74,150.2,M,24.4,M,,0000*4D
",0,0,2,157,24,20,20
"",17.4,41.5,28.0,0.4,99,2,216,130,0,25022176,9,1,0,132,0,1,0,0,1,0,3,29,2,3500,0,6,10,50,2,500,17,10,1,0,0,11,"$GNGGA,194758.00,5208.97865,N,03011.25860,E,2,12,0.59,130.1,M,24.4,M,,0000*49
",0,0,2,145,-132,-137,-140
"",19.2,6.1,27.5,0.5,99,2,203,130,0,25022176,10,1,0,133,0,1,0,0,1,0,3,29,2,3500,0,6,10,50,2,500,17,10,1,0,0,11,"$GNGGA,195214.00,5209.00819,N,03011.25005,E,2,12,0.53,129.6,M,24.4,M,,0000*4F
",0,0,2,184,-80,-83,-83
"",16.1,6.6,27.3,0.4,99,2,214,130,0,25022176,11,1,0,134,0,1,0,0,1,0,3,29,2,3500,0,6,10,50,2,500,17,10,1,0,0,11,"$GNGGA,195622.00,5209.02195,N,03011.22267,E,2,12,0.57,130.3,M,24.4,M,,0000*49
",0,0,2,184,-123,-126,-127
"",13.9,50.5,26.3,0.4,99,2,211,130,0,25022176,12,1,0,135,0,1,0,0,1,0,3,29,2,3500,0,6,10,50,2,500,17,10,1,0,0,11,"$GNGGA,200041.00,5209.04915,N,03011.21064,E,2,12,0.55,128.9,M,24.4,M,,0000*40
",0,0,2,438,-132,-138,-139
"",15.6,48.7,26.0,0.5,99,2,206,130,0,25022176,13,1,0,136,0,1,0,0,1,0,3,29,2,3500,0,6,10,50,2,500,17,10,1,0,0,11,"$GNGGA,200410.00,5209.06318,N,03011.18480,E,2,12,0.59,129.8,M,24.4,M,,0000*4D
",0,0,2,138,-91,-96,-97
"",16.8,44.7,28.4,0.5,99,2,198,130,0,25022176,14,1,0,137,0,1,0,0,1,0,3,29,2,3500,0,6,10,50,2,500,17,10,1,0,0,11,"$GNGGA,200806.00,5209.07591,N,03011.15412,E,2,12,0.65,129.8,M,24.4,M,,0000*49
",0,0,2,128,-72,-76,-79
"",13.1,7.6,27.8,0.4,93,2,210,130,0,25022176,15,1,0,138,0,1,0,0,1,0,3,29,2,3500,0,6,10,50,2,500,17,10,1,0,0,11,"$GNGGA,201415.00,5209.08803,N,03011.12696,E,2,12,0.64,129.5,M,24.4,M,,0000*4A
",0,0,2,182,183,179,179
"",14.2,7.2,28.0,0.5,99,2,207,130,0,25022176,16,1,0,139,0,1,0,0,1,0,3,29,2,3500,0,6,10,50,2,500,17,10,1,0,0,11,"$GNGGA,201819.00,5209.10011,N,03011.09651,E,2,12,0.62,130.2,M,24.4,M,,0000*40
",0,0,2,409,443,441,442
"",11.3,39.6,27.9,0.4,99,2,218,130,0,25022176,17,1,0,140,0,1,0,0,1,0,3,29,2,3500,0,6,10,50,2,500,17,10,1,0,0,11,"$GNGGA,202214.00,5209.11144,N,03011.06805,E,2,12,0.61,129.0,M,24.4,M,,0000*4D
",0,0,2,164,-90,-94,-94
"",16.0,7.3,28.2,0.4,86,2,195,130,0,25022176,18,1,0,141,0,1,0,0,1,0,3,29,2,3500,0,6,10,50,2,500,17,10,1,0,0,11,"$GNGGA,202627.00,5209.12464,N,03011.03862,E,2,12,0.59,128.5,M,24.4,M,,0000*46
",0,0,2,264,-64,-67,-66
"",16.1,7.9,26.9,0.5,99,2,204,130,0,25022176,19,1,0,142,0,1,0,0,1,0,3,29,2,3500,0,6,10,50,2,500,17,10,1,0,0,11,"$GNGGA,203006.00,5209.13662,N,03011.01292,E,2,12,0.59,129.9,M,24.4,M,,0000*4D
",0,0,2,166,3,-1,-1
"",14.8,44.2,28.0,0.5,99,2,206,130,0,25022176,20,1,0,143,0,1,0,0,1,0,3,29,2,3500,0,6,10,50,2,500,17,10,1,0,0,11,"$GNGGA,203419.00,5209.14744,N,03010.98412,E,2,12,0.59,130.1,M,24.4,M,,0000*4A
",0,0,2,140,86,82,82
"",16.1,6.8,26.0,0.5,99,2,206,130,0,25022176,21,1,0,144,0,1,0,0,1,0,3,29,2,3500,0,6,10,50,2,500,17,10,1,0,0,11,"$GNGGA,204014.00,5209.23718,N,03011.08163,E,2,12,0.68,128.9,M,24.4,M,,0000*41
",0,0,2,183,-1,-5,-6
"",17.4,6.4,28.2,0.5,87,2,201,130,0,25022176,22,1,0,145,0,1,0,0,1,0,3,29,2,3500,0,6,10,50,2,500,17,10,1,0,0,11,"$GNGGA,204347.00,5209.28667,N,03011.09501,E,2,12,0.62,127.5,M,24.4,M,,0000*4E
",0,0,2,151,-76,-79,-80
"",17.5,49.7,27.5,0.4,84,2,214,130,0,25022176,23,1,0,146,0,1,0,0,1,0,3,29,2,3500,0,6,10,50,2,500,17,10,1,0,0,11,"$GNGGA,204638.00,5209.27483,N,03011.12064,E,2,12,0.59,127.2,M,24.4,M,,0000*47
",0,0,2,119,113,108,108
"",15.3,7.5,27.1,0.4,99,2,206,130,0,25022176,24,1,0,147,0,1,0,0,1,0,3,29,2,3500,0,6,10,50,2,500,17,10,1,0,0,11,"$GNGGA,205214.00,5209.22624,N,03011.11063,E,2,12,0.59,129.1,M,24.4,M,,0000*4F
",0,0,2,370,-22,-24,-23
"",14.4,43.4,28.3,0.5,99,2,207,130,0,25022176,25,1,0,148,0,1,0,0,1,0,3,29,2,3500,0,6,10,50,2,500,17,10,1,0,0,11,"$GNGGA,205503.00,5209.19759,N,03011.11957,E,2,12,0.60,127.7,M,24.4,M,,0000*41
",0,0,2,87,20,16,15
"",20.3,38.3,26.9,0.4,99,2,201,130,0,25022176,26,1,0,149,0,1,0,0,1,0,3,29,2,3500,0,6,10,50,2,500,17,10,1,0,0,11,"$GNGGA,205949.00,5209.18297,N,03011.14476,E,2,12,0.57,129.3,M,24.4,M,,0000*40
",0,0,2,423,128,121,119
"",17.0,7.5,27.3,0.4,94,2,212,130,0,25022176,27,1,0,150,0,1,0,0,1,0,3,29,2,3500,0,6,10,50,2,500,17,10,1,0,0,11,"$GNGGA,210709.00,5209.22317,N,03011.23727,E,2,12,0.61,131.5,M,24.4,M,,0000*47
",0,0,2,144,63,59,60
"",16.8,44.9,27.8,0.5,99,2,199,130,0,25022176,28,1,0,151,0,1,0,0,1,0,3,29,2,3500,0,6,10,50,2,500,17,10,1,0,0,11,"$GNGGA,210923.00,5209.21137,N,03011.26378,E,2,12,0.64,132.1,M,24.4,M,,0000*4B
",0,0,2,195,49,46,45
"",18.6,5.9,26.8,0.5,89,2,196,130,0,25022176,29,1,0,152,0,1,0,0,1,0,3,29,2,3500,0,6,10,50,2,500,17,10,1,0,0,11,"$GNGGA,211200.00,5209.18288,N,03011.27086,E,2,12,0.59,130.7,M,24.4,M,,0000*44
",0,0,2,150,95,91,91
"",15.8,7.6,27.6,0.4,99,2,209,130,0,25022176,30,1,0,153,0,1,0,0,1,0,3,29,2,3500,0,6,10,50,2,500,17,10,1,0,0,11,"$GNGGA,212024.00,5209.24050,N,03011.38429,E,1,12,0.59,147.0,M,24.4,M,,*40
",0,0,2,154,-44,-47,-48
"",16.6,58.5,26.3,0.4,83,2,204,130,0,25022176,31,1,0,154,0,1,0,0,1,0,3,29,2,3500,0,6,10,50,2,500,17,10,1,0,0,11,"$GNGGA,212137.00,5209.23375,N,03011.40612,E,1,12,0.79,145.0,M,24.4,M,,*45
",0,0,2,229,76,72,72
"",16.2,7.0,29.3,0.4,99,2,208,130,0,25022176,32,1,0,155,0,1,0,0,1,0,3,29,2,3500,0,6,10,50,2,500,17,10,1,0,0,11,"$GNGGA,212500.00,5209.21673,N,03011.43266,E,1,12,0.80,143.3,M,24.4,M,,*43
",0,0,2,158,3,-1,-1
"",20.9,7.6,28.3,0.5,98,2,202,134,0,25022176,0,1,0,156,0,1,0,0,1,0,3,29,2,3500,0,6,10,50,2,500,17,10,1,0,0,11,"$GNGGA,170549.00,5210.08997,N,03011.34854,E,1,08,2.13,134.5,M,24.4,M,,*41
",0,0,2,109,-19,-23,-24
"",20.0,40.6,29.2,0.5,98,2,215,134,0,25022176,1,1,0,157,0,1,0,0,1,0,3,29,2,3500,0,6,10,50,2,500,17,10,1,0,0,11,"$GNGGA,171049.00,5210.07779,N,03011.37376,E,2,12,0.69,134.6,M,24.4,M,,0000*48
",0,0,2,272,32,24,22
"",20.8,78.9,29.7,0.5,85,2,214,133,0,25022176,2,1,0,158,0,1,0,0,1,0,3,29,2,3500,0,6,10,50,2,500,17,10,1,0,0,11,"$GNGGA,171409.00,5210.06543,N,03011.40079,E,2,12,0.69,133.2,M,24.4,M,,0000*4D
",0,0,2,469,115,111,111
"",200.0,100.0,28.0,0.4,92,2,220,133,0,25022176,3,1,0,159,0,1,0,0,1,0,3,29,2,3500,0,6,10,50,2,500,17,10,1,0,0,11,"$GNGGA,171742.00,5210.06995,N,03011.44614,E,2,12,0.62,143.0,M,24.4,M,,0000*41
",0,0,0,678,-545,-561,-565
"",15.5,78.6,28.3,0.5,83,2,207,132,0,25022176,4,1,0,160,0,1,0,0,1,0,3,29,2,3500,0,6,10,50,2,500,17,10,1,0,0,11,"$GNGGA,172057.00,5210.06429,N,03011.45801,E,2,12,0.65,138.3,M,24.4,M,,0000*48
",0,0,2,128,-45,-50,-51
"",18.4,7.9,27.6,0.4,99,2,215,131,0,25022176,5,1,0,161,0,1,0,0,1,0,3,29,2,3500,0,6,10,50,2,500,17,10,1,0,0,11,"$GNGGA,172151.00,5210.06420,N,03011.47793,E,2,12,0.65,147.4,M,24.4,M,,0000*4F
",0,0,2,163,148,144,142
"",18.6,70.8,29.4,0.4,99,2,219,131,0,25022176,6,1,0,162,0,1,0,0,1,0,3,29,2,3500,0,6,10,50,2,500,17,10,1,0,0,11,"$GNGGA,172605.00,5210.05573,N,03011.50416,E,2,12,0.59,154.8,M,24.4,M,,0000*44
",0,0,2,164,33,29,28
"",21.2,7.0,28.4,0.5,99,2,211,131,0,25022176,7,1,0,163,0,1,0,0,1,0,3,29,2,3500,0,6,10,50,2,500,17,10,1,0,0,11,"$GNGGA,173248.00,5210.04029,N,03011.53444,E,2,12,0.84,147.4,M,24.4,M,,0000*49
",0,0,2,211,44,40,40
"",18.9,6.3,28.1,0.4,95,2,204,130,0,25022176,7,1,0,164,0,1,0,0,1,0,3,29,2,3500,0,6,10,50,2,500,17,10,1,0,0,11,"$GNGGA,173654.00,5210.04117,N,03011.58148,E,2,12,0.67,139.9,M,24.4,M,,0000*47
",0,0,2,293,274,268,267
"",21.0,45.3,27.5,0.4,99,2,211,130,0,25022176,8,1,0,165,0,1,0,0,1,0,3,29,2,3500,0,6,10,50,2,500,17,10,1,0,0,11,"$GNGGA,174219.00,5210.03232,N,03011.61234,E,2,12,0.72,146.2,M,24.4,M,,0000*4B
",0,0,2,201,152,149,147
"",20.7,93.8,27.9,0.5,99,2,208,130,0,25022176,9,1,0,166,0,1,0,0,1,0,3,29,2,3500,0,6,10,50,2,500,17,10,1,0,0,11,"$GNGGA,174626.00,5210.02008,N,03011.64454,E,2,12,0.77,145.1,M,24.4,M,,0000*49
",0,0,2,141,-63,-70,-71
"",19.8,7.0,28.7,0.4,98,2,206,130,0,25022176,10,1,0,167,0,1,0,0,1,0,3,29,2,3500,0,6,10,50,2,500,17,10,1,0,0,11,"$GNGGA,175040.00,5210.02419,N,03011.68441,E,2,12,0.62,149.2,M,24.4,M,,0000*49
",0,0,2,104,71,68,67
"",21.0,86.0,29.1,0.5,94,2,204,130,0,25022176,11,1,0,168,0,1,0,0,1,0,3,29,2,3500,0,6,10,50,2,500,17,10,1,0,0,11,"$GNGGA,175505.00,5210.01246,N,03011.71690,E,2,12,0.62,153.2,M,24.4,M,,0000*4F
",0,0,2,78,57,52,50
"",21.2,33.8,28.7,0.5,96,2,214,130,0,25022176,12,1,0,169,0,1,0,0,1,0,3,29,2,3500,0,6,10,50,2,500,17,10,1,0,0,11,"$GNGGA,175919.00,5210.00457,N,03011.74677,E,1,12,0.64,151.3,M,24.4,M,,*43
",0,0,2,225,226,222,221
"",21.4,47.6,29.0,0.5,93,2,206,130,0,25022176,13,1,0,170,0,1,0,0,1,0,3,29,2,3500,0,6,10,50,2,500,17,10,1,0,0,11,"$GNGGA,180342.00,5210.00210,N,03011.79840,E,1,12,0.61,150.1,M,24.3,M,,*4E
",0,0,2,138,44,41,40
"",15.3,36.3,28.4,0.5,99,2,206,130,0,25022176,14,1,0,171,0,1,0,0,1,0,3,29,2,3500,0,6,10,50,2,500,17,10,1,0,0,11,"$GNGGA,181201.00,5210.05999,N,03012.03493,E,1,12,0.57,131.4,M,24.3,M,,*4D
",0,0,2,120,-105,-110,-110
"",17.1,52.2,28.0,0.4,75,2,214,130,0,25022176,15,1,0,172,0,1,0,0,1,0,3,29,2,3500,0,6,10,50,2,500,17,10,1,0,0,11,"$GNGGA,181857.00,5210.07854,N,03012.01075,E,2,12,0.71,126.9,M,24.3,M,,0000*44
",0,0,2,226,38,33,32
"",17.6,30.8,27.6,0.4,84,2,207,130,0,25022176,16,1,0,173,0,1,0,0,1,0,3,29,2,3500,0,6,10,50,2,500,17,10,1,0,0,11,"$GNGGA,182107.00,5210.08680,N,03011.97973,E,2,12,0.63,128.8,M,24.3,M,,0000*4C
",0,0,2,182,-59,-63,-65
"",20.8,43.3,28.8,0.5,97,2,212,130,0,25022176,17,1,0,174,0,1,0,0,1,0,3,29,2,3500,0,6,10,50,2,500,17,10,1,0,0,11,"$GNGGA,182511.00,5210.08548,N,03011.93410,E,2,12,0.64,132.5,M,24.3,M,,0000*45
",0,0,2,191,23,19,19
"",23.8,6.9,27.9,0.5,88,2,197,130,0,25022176,18,1,0,175,0,1,0,0,1,0,3,29,2,3500,0,6,10,50,2,500,17,10,1,0,0,11,"$GNGGA,182848.00,5210.09565,N,03011.90655,E,1,12,0.73,129.3,M,24.3,M,,*43
",0,0,2,395,-209,-214,-215
"",16.1,7.5,26.2,0.5,95,2,203,130,0,25022176,19,1,0,176,0,1,0,0,1,0,3,29,2,3500,0,6,10,50,2,500,17,10,1,0,0,11,"$GNGGA,183310.00,5210.12294,N,03011.89340,E,1,12,0.65,130.4,M,24.3,M,,*46
",0,0,2,98,59,56,55
"",16.1,7.5,27.1,0.4,89,2,203,130,0,25022176,20,1,0,177,0,1,0,0,1,0,3,29,2,3500,0,6,10,50,2,500,17,10,1,0,0,11,"$GNGGA,183649.00,5210.13539,N,03011.86407,E,2,12,0.72,130.5,M,24.3,M,,0000*41
",0,0,2,99,-4,-7,-7
"",18.6,6.4,28.2,0.5,82,2,195,130,0,25022176,21,1,0,178,0,1,0,0,1,0,3,29,2,3500,0,6,10,50,2,500,17,10,1,0,0,11,"$GNGGA,183957.00,5210.14701,N,03011.83361,E,2,12,0.61,127.4,M,24.3,M,,0000*48
",0,0,2,175,59,56,57
"",15.9,6.7,28.2,0.4,99,2,213,130,0,25022176,22,1,0,179,0,1,0,0,1,0,3,29,2,3500,0,6,10,50,2,500,17,10,1,0,0,11,"$GNGGA,184410.00,5210.16203,N,03011.80851,E,2,12,0.61,131.0,M,24.3,M,,0000*4C
",0,0,2,99,28,24,25
"",14.3,49.8,29.3,0.5,89,2,211,130,0,25022176,23,1,0,180,0,1,0,0,1,0,3,29,2,3500,0,6,10,50,2,500,17,10,1,0,0,11,"$GNGGA,184846.00,5210.17186,N,03011.77767,E,2,12,0.61,129.5,M,24.3,M,,0000*42
",0,0,2,413,436,432,433
"",16.7,6.2,29.1,0.4,96,2,213,130,0,25022176,24,1,0,181,0,1,0,0,1,0,3,29,2,3500,0,6,10,50,2,500,17,10,1,0,0,11,"$GNGGA,185247.00,5210.18441,N,03011.74825,E,2,12,0.61,132.0,M,24.3,M,,0000*4C
",0,0,2,171,60,56,55
"",14.5,7.4,27.5,0.4,98,2,203,130,0,25022176,25,1,0,182,0,1,0,0,1,0,3,29,2,3500,0,6,10,50,2,500,17,10,1,0,0,11,"$GNGGA,185636.00,5210.19675,N,03011.71821,E,1,12,0.59,130.3,M,24.3,M,,*42
",0,0,2,478,85,82,83
"",20.9,69.0,27.3,0.6,99,2,183,130,0,25022176,26,1,0,183,0,1,0,0,1,0,3,29,2,3500,0,6,10,50,2,500,17,10,1,0,0,11,"$GNGGA,190357.00,5210.20942,N,03011.69024,E,2,12,0.61,129.5,M,24.3,M,,0000*47
",0,0,2,123,46,42,42
"",17.7,6.6,29.3,0.4,99,2,207,130,0,25022176,27,1,0,184,0,1,0,0,1,0,3,29,2,3500,0,6,10,50,2,500,17,10,1,0,0,11,"$GNGGA,190749.00,5210.22053,N,03011.66153,E,2,12,0.60,128.5,M,24.3,M,,0000*49
",0,0,2,120,-6,-10,-10
"",15.7,66.5,29.5,0.4,99,2,221,130,0,25022176,28,1,0,185,0,1,0,0,1,0,3,29,2,3500,0,6,10,50,2,500,17,10,1,0,0,11,"$GNGGA,191231.00,5210.23392,N,03011.63701,E,2,12,0.60,129.2,M,24.3,M,,0000*4F
",0,0,2,513,270,265,264
"",20.7,7.4,27.9,0.6,99,2,188,130,0,25022176,29,1,0,186,0,1,0,0,1,0,3,29,2,3500,0,6,10,50,2,500,17,10,1,0,0,11,"$GNGGA,191631.00,5210.24985,N,03011.65200,E,2,12,0.60,128.6,M,24.3,M,,0000*47
",0,0,2,150,-155,-160,-160
"",19.2,7.0,27.0,0.5,89,2,209,130,0,25022176,30,1,0,187,0,1,0,0,1,0,3,29,2,3500,0,6,10,50,2,500,17,10,1,0,0,11,"$GNGGA,191910.00,5210.26236,N,03011.62403,E,2,12,0.61,129.5,M,24.3,M,,0000*4B
",0,0,2,159,2,-2,-2
"",18.1,75.5,27.8,0.5,99,2,204,130,0,25022176,31,1,0,188,0,1,0,0,1,0,3,29,2,3500,0,6,10,50,2,500,17,10,1,0,0,11,"$GNGGA,192218.00,5210.27538,N,03011.59757,E,2,12,0.61,128.8,M,24.3,M,,0000*45
",0,0,2,135,-47,-52,-53
"",19.1,51.5,27.4,0.5,99,2,211,130,0,25022176,32,1,0,189,0,1,0,0,1,0,3,29,2,3500,0,6,10,50,2,500,17,10,1,0,0,11,"$GNGGA,192731.00,5210.33982,N,03011.62563,E,2,12,0.62,128.0,M,24.3,M,,0000*45
",0,0,2,127,33,30,31
"",16.8,6.9,27.4,0.5,99,2,207,130,0,25022176,33,1,0,190,0,1,0,0,1,0,3,29,2,3500,0,6,10,50,2,500,17,10,1,0,0,11,"$GNGGA,192931.00,5210.32908,N,03011.65403,E,2,12,0.56,130.3,M,24.3,M,,0000*45
",0,0,2,215,-145,-150,-150
"",15.9,44.2,27.9,0.4,86,2,212,130,0,25022176,34,1,0,191,0,1,0,0,1,0,3,29,2,3500,0,6,10,50,2,500,17,10,1,0,0,11,"$GNGGA,193232.00,5210.31655,N,03011.68262,E,2,12,0.56,130.1,M,24.3,M,,0000*46
",0,0,2,203,77,72,71
"",13.4,48.7,28.6,0.5,99,2,207,130,0,25022176,35,1,0,192,0,1,0,0,1,0,3,29,2,3500,0,6,10,50,2,500,17,10,1,0,0,11,"$GNGGA,193541.00,5210.30414,N,03011.71234,E,2,12,0.53,127.9,M,24.3,M,,0000*43
",0,0,2,129,-1,-4,-4
"",12.6,6.5,28.9,0.4,81,2,207,132,0,25022176,0,1,0,193,0,1,0,0,1,0,3,29,2,3500,0,6,10,50,2,500,17,10,1,0,0,11,"$GNGGA,153039.00,5210.12444,N,03012.57182,E,1,12,0.67,126.9,M,24.3,M,,*4C
",0,0,2,124,58,53,52
"",12.1,46.3,26.0,0.5,98,2,205,132,0,25022176,1,1,0,194,0,1,0,0,1,0,3,29,2,3500,0,6,10,50,2,500,17,10,1,0,0,11,"$GNGGA,153349.00,5210.14047,N,03012.59167,E,2,12,0.63,127.8,M,24.3,M,,0000*4B
",0,0,2,101,-17,-21,-21
"",15.0,6.4,29.2,0.4,99,2,187,131,0,25022176,2,1,0,195,0,1,0,0,1,0,3,29,2,3500,0,6,10,50,2,500,17,10,1,0,0,11,"$GNGGA,153536.00,5210.14875,N,03012.63954,E,1,12,0.63,126.8,M,24.3,M,,*4F
",0,0,2,672,673,669,668
"",13.5,42.5,28.7,0.4,83,2,204,131,0,25022176,3,1,0,196,0,1,0,0,1,0,3,29,2,3500,0,6,10,50,2,500,17,10,1,0,0,11,"$GNGGA,153812.00,5210.18352,N,03012.68066,E,1,12,0.63,127.4,M,24.3,M,,*48
",0,0,2,260,-56,-59,-59
"",13.7,27.2,28.6,0.4,99,2,213,131,0,25022176,4,1,0,197,0,1,0,0,1,0,3,29,2,3500,0,6,10,50,2,500,17,10,1,0,0,11,"$GNGGA,154018.00,5210.17144,N,03012.71059,E,1,12,0.66,128.8,M,24.3,M,,*45
",0,0,2,128,-49,-53,-53
"",13.3,6.3,28.9,0.5,91,2,207,131,0,25022176,5,1,0,198,0,1,0,0,1,0,3,29,2,3500,0,6,10,50,2,500,17,10,1,0,0,11,"$GNGGA,154217.00,5210.18827,N,03012.72931,E,1,12,0.63,127.5,M,24.3,M,,*48
",0,0,2,96,54,50,50
"",16.6,6.5,28.3,0.5,98,2,194,130,0,25022176,6,1,0,199,0,1,0,0,1,0,3,29,2,3500,0,6,10,50,2,500,17,10,1,0,0,11,"$GNGGA,154632.00,5210.20264,N,03012.69959,E,2,12,0.64,129.5,M,24.3,M,,0000*43
",0,0,2,132,-62,-66,-67
"",13.2,44.1,27.9,0.5,99,2,201,130,0,25022176,7,1,0,200,0,1,0,0,1,0,3,29,2,3500,0,6,10,50,2,500,17,10,1,0,0,11,"$GNGGA,154851.00,5210.21996,N,03012.71886,E,2,12,0.64,129.5,M,24.3,M,,0000*45
",0,0,2,156,64,60,59
"",13.8,39.2,28.2,0.4,99,2,212,130,0,25022176,8,1,0,201,0,1,0,0,1,0,3,29,2,3500,0,6,10,50,2,500,17,10,1,0,0,11,"$GNGGA,155902.00,5210.20746,N,03012.75216,E,2,12,0.70,129.5,M,24.3,M,,0000*43
",0,0,2,52,-34,-39,-40
"",12.6,6.6,28.3,0.5,88,2,214,130,0,25022176,9,1,0,202,0,1,0,0,1,0,3,29,2,3500,0,6,10,50,2,500,17,10,1,0,0,11,"$GNGGA,160432.00,5210.22938,N,03012.81817,E,2,12,0.62,129.3,M,24.3,M,,0000*4B
",0,0,2,97,54,50,50
"",13.0,36.1,27.2,0.4,92,2,211,130,0,25022176,10,1,0,203,0,1,0,0,1,0,3,29,2,3500,0,6,10,50,2,500,17,10,1,0,0,11,"$GNGGA,161206.00,5210.22392,N,03012.77127,E,2,12,0.67,130.1,M,24.3,M,,0000*4D
",0,0,2,196,-31,-37,-37
"",11.6,7.1,29.4,0.4,98,2,207,130,0,25022176,11,1,0,204,0,1,0,0,1,0,3,29,2,3500,0,6,10,50,2,500,17,10,1,0,0,11,"$GNGGA,161703.00,5210.23698,N,03012.73807,E,2,12,0.70,127.0,M,24.3,M,,0000*4D
",0,0,2,100,-50,-54,-54
"",14.6,50.3,27.0,0.5,99,2,206,130,0,25022176,12,1,0,205,0,1,0,0,1,0,3,29,2,3500,0,6,10,50,2,500,17,10,1,0,0,11,"$GNGGA,162307.00,5210.24898,N,03012.71333,E,2,12,0.60,125.4,M,24.3,M,,0000*4E
",0,0,2,111,-8,-12,-13
"",12.5,7.5,28.7,0.4,94,2,217,130,0,25022176,13,1,0,206,0,1,0,0,1,0,3,29,2,3500,0,6,10,50,2,500,17,10,1,0,0,11,"$GNGGA,163241.00,5210.24491,N,03012.66720,E,2,12,0.58,129.3,M,24.3,M,,0000*49
",0,0,2,102,-97,-100,-100
"",14.4,42.3,28.7,0.4,98,2,200,130,0,25022176,14,1,0,207,0,1,0,0,1,0,3,29,2,3500,0,6,10,50,2,500,17,10,1,0,0,11,"$GNGGA,164543.00,5210.27336,N,03012.65654,E,2,12,0.65,126.5,M,24.3,M,,0000*44
",0,0,2,73,-30,-33,-34
"",15.5,7.2,27.8,0.5,97,2,198,130,0,25022176,15,1,0,208,0,1,0,0,1,0,3,29,2,3500,0,6,10,50,2,500,17,10,1,0,0,11,"$GNGGA,202554.00,5210.28644,N,03012.62834,E,2,12,0.75,125.2,M,24.3,M,,0000*44
",0,0,2,171,5,1,0
"",13.7,46.0,27.4,0.4,99,2,209,130,0,25022176,16,1,0,209,0,1,0,0,1,0,3,29,2,3500,0,6,10,50,2,500,17,10,1,0,0,11,"$GNGGA,204144.00,5210.29802,N,03012.60095,E,2,12,0.60,127.0,M,24.3,M,,0000*4F
",0,0,2,89,-65,-70,-70
"",14.1,7.2,27.3,0.4,99,2,202,130,0,25022176,17,1,0,210,0,1,0,0,1,0,3,29,2,3500,0,6,10,50,2,500,17,10,1,0,0,11,"$GNGGA,205625.00,5210.31051,N,03012.57073,E,2,12,0.62,127.7,M,24.3,M,,0000*40
",0,0,2,177,-151,-155,-155
"",15.2,6.9,27.9,0.4,99,2,211,130,0,25022176,18,1,0,211,0,1,0,0,1,0,3,29,2,3500,0,6,10,50,2,500,17,10,1,0,0,11,"$GNGGA,210228.00,5210.32194,N,03012.54079,E,2,12,0.73,126.0,M,24.3,M,,0000*49
",0,0,2,133,-9,-12,-12
"",14.5,44.0,27.6,0.4,95,2,212,130,0,25022176,19,1,0,212,0,1,0,0,1,0,3,29,2,3500,0,6,10,50,2,500,17,10,1,0,0,11,"$GNGGA,210921.00,5210.33481,N,03012.51226,E,2,12,0.54,125.1,M,24.3,M,,0000*41
",0,0,2,97,-101,-105,-107
"",13.4,50.0,27.9,0.4,99,2,211,130,0,25022176,20,1,0,213,0,1,0,0,1,0,3,29,2,3500,0,6,10,50,2,500,17,10,1,0,0,11,"$GNGGA,211738.00,5210.34702,N,03012.48194,E,2,12,0.54,127.5,M,24.3,M,,0000*4D
",0,0,2,123,69,63,63
"",13.4,44.4,27.0,0.4,93,2,201,130,0,25022176,21,1,0,214,0,1,0,0,1,0,3,29,2,3500,0,6,10,50,2,500,17,10,1,0,0,11,"$GNGGA,212307.00,5210.35938,N,03012.45399,E,2,12,0.56,127.1,M,24.3,M,,0000*44
",0,0,2,68,8,5,3
"",14.7,45.0,27.6,0.5,99,2,198,130,0,25022176,22,1,0,215,0,1,0,0,1,0,3,29,2,3500,0,6,10,50,2,500,17,10,1,0,0,11,"$GNGGA,212905.00,5210.37165,N,03012.42592,E,2,12,0.54,128.4,M,24.3,M,,0000*4C
",0,0,2,107,27,24,23
"",14.1,54.8,28.8,0.5,84,2,211,130,0,25022176,23,1,0,216,0,1,0,0,1,0,3,29,2,3500,0,6,10,50,2,500,17,10,1,0,0,11,"$GNGGA,221413.00,5210.38494,N,03012.39559,E,2,12,0.58,128.8,M,24.3,M,,0000*49
",0,0,2,69,73,69,67
"",13.7,44.3,28.4,0.5,98,2,207,130,0,25022176,24,1,0,217,0,1,0,0,1,0,3,29,2,3500,0,6,10,50,2,500,17,10,1,0,0,11,"$GNGGA,222435.00,5210.39601,N,03012.36795,E,2,12,0.60,128.8,M,24.3,M,,0000*47
",0,0,2,109,-72,-76,-76
"",15.2,7.5,27.6,0.4,99,2,215,130,0,25022176,25,1,0,218,0,1,0,0,1,0,3,29,2,3500,0,6,10,50,2,500,17,10,1,0,0,11,"$GNGGA,223226.00,5210.40811,N,03012.33975,E,2,12,0.57,127.8,M,24.3,M,,0000*4D
",0,0,2,50,22,19,19
"",14.3,55.8,28.8,0.5,99,2,208,130,0,25022176,26,1,0,219,0,1,0,0,1,0,3,29,2,3500,0,6,10,50,2,500,17,10,1,0,0,11,"$GNGGA,223632.00,5210.42108,N,03012.30974,E,2,12,0.58,127.3,M,24.3,M,,0000*49
",0,0,2,86,-32,-38,-38
"",12.5,38.4,27.9,0.5,99,2,204,130,0,25022176,27,1,0,220,0,1,0,0,1,0,3,29,2,3500,0,6,10,50,2,500,17,10,1,0,0,11,"$GNGGA,224606.00,5210.43251,N,03012.28121,E,2,12,0.62,127.0,M,24.3,M,,0000*4C
",0,0,2,197,80,75,74
"",14.6,40.8,29.0,0.5,99,2,189,130,0,25022176,28,1,0,221,0,1,0,0,1,0,3,29,2,3500,0,6,10,50,2,500,17,10,1,0,0,11,"$GNGGA,225219.00,5210.44419,N,03012.25209,E,2,12,0.59,125.6,M,24.3,M,,0000*42
",0,0,2,88,-56,-60,-60
"",17.1,100.0,28.9,0.4,99,2,211,134,0,25022176,0,1,0,222,0,1,0,0,1,0,3,29,2,3500,0,6,10,50,2,500,17,10,1,0,0,11,"$GNGGA,172345.00,5210.39323,N,03010.28770,E,1,12,0.85,157.2,M,24.4,M,,*4F
",0,0,2,97,49,44,42
"",18.0,58.7,28.3,0.4,99,2,215,133,0,25022176,1,1,0,223,0,1,0,0,1,0,3,29,2,3500,0,6,10,50,2,500,17,10,1,0,0,11,"$GNGGA,173019.00,5210.41046,N,03010.27217,E,2,12,0.70,140.4,M,24.4,M,,0000*49
",0,0,2,111,38,33,32
"",19.9,56.6,29.0,0.4,99,2,214,131,0,25022176,2,1,0,224,0,1,0,0,1,0,3,29,2,3500,0,6,10,50,2,500,17,10,1,0,0,11,"$GNGGA,173742.00,5210.41061,N,03010.23187,E,2,12,0.62,144.8,M,24.4,M,,0000*40
",0,0,2,450,-226,-233,-235
"",21.3,7.1,29.0,0.6,99,2,167,131,0,25022176,3,1,0,225,0,1,0,0,1,0,3,29,2,3500,0,6,10,50,2,500,17,10,1,0,0,11,"$GNGGA,174550.00,5210.43388,N,03010.20942,E,2,12,0.64,145.5,M,24.4,M,,0000*48
",0,0,2,158,-8,-12,-13
"",19.0,49.6,28.7,0.4,82,2,201,130,0,25022176,4,1,0,226,0,1,0,0,1,0,3,29,2,3500,0,6,10,50,2,500,17,10,1,0,0,11,"$GNGGA,175156.00,5210.45243,N,03010.18576,E,2,12,0.69,136.6,M,24.4,M,,0000*41
",0,0,2,173,160,155,153
"",17.7,41.3,28.0,0.5,98,2,213,130,0,25022176,5,1,0,227,0,1,0,0,1,0,3,29,2,3500,0,6,10,50,2,500,17,10,1,0,0,11,"$GNGGA,180043.00,5210.46441,N,03010.15522,E,2,12,0.81,139.1,M,24.4,M,,0000*4B
",0,0,2,116,63,59,58
"",18.1,7.7,28.3,0.4,91,2,207,130,0,25022176,6,1,0,228,0,1,0,0,1,0,3,29,2,3500,0,6,10,50,2,500,17,10,1,0,0,11,"$GNGGA,180807.00,5210.47718,N,03010.13199,E,2,12,0.76,146.1,M,24.4,M,,0000*4F
",0,0,2,108,61,57,56
"",19.8,75.2,28.3,0.4,97,2,216,130,0,25022176,7,1,0,229,0,1,0,0,1,0,3,29,2,3500,0,6,10,50,2,500,17,10,1,0,0,11,"$GNGGA,181404.00,5210.48750,N,03010.09405,E,2,12,0.69,140.0,M,24.4,M,,0000*40
",0,0,2,91,80,76,74
"",18.2,68.3,28.3,0.5,99,2,207,130,0,25022176,8,1,0,230,0,1,0,0,1,0,3,29,2,3500,0,6,10,50,2,500,17,10,1,0,0,11,"$GNGGA,181922.00,5210.49791,N,03010.06931,E,2,12,0.62,143.3,M,24.4,M,,0000*4B
",0,0,2,51,-4,-8,-10
"",18.0,42.8,28.6,0.5,98,2,218,130,0,25022176,9,1,0,231,0,1,0,0,1,0,3,29,2,3500,0,6,10,50,2,500,17,10,1,0,0,11,"$GNGGA,182353.00,5210.51168,N,03010.03519,E,2,12,0.68,134.3,M,24.4,M,,0000*44
",0,0,2,71,-8,-13,-12
"",16.8,41.4,28.4,0.4,87,2,216,130,0,25022176,10,1,0,232,0,1,0,0,1,0,3,29,2,3500,0,6,10,50,2,500,17,10,1,0,0,11,"$GNGGA,183059.00,5210.52239,N,03010.00884,E,2,12,0.61,139.8,M,24.4,M,,0000*4D
",0,0,2,80,-46,-50,-51
"",17.6,54.3,28.1,0.5,97,2,208,130,0,25022176,11,1,0,233,0,1,0,0,1,0,3,29,2,3500,0,6,10,50,2,500,17,10,1,0,0,11,"$GNGGA,183544.00,5210.53255,N,03009.98007,E,2,12,0.62,140.6,M,24.4,M,,0000*46
",0,0,2,177,-82,-87,-87
"",17.9,45.7,26.8,0.5,90,2,210,130,0,25022176,12,1,0,234,0,1,0,0,1,0,3,29,2,3500,0,6,10,50,2,500,17,10,1,0,0,11,"$GNGGA,191225.00,5210.54360,N,03009.95157,E,2,12,0.69,144.2,M,24.4,M,,0000*47
",0,0,2,79,-21,-24,-25
"",17.9,6.6,27.2,0.4,99,2,208,130,0,25022176,13,1,0,235,0,1,0,0,1,0,3,29,2,3500,0,6,10,50,2,500,17,10,1,0,0,11,"$GNGGA,192528.00,5210.44565,N,03009.70866,E,2,12,0.60,143.3,M,24.4,M,,0000*43
",0,0,2,78,-25,-29,-29
"",17.7,6.8,27.3,0.4,92,2,207,130,0,25022176,14,1,0,236,0,1,0,0,1,0,3,29,2,3500,0,6,10,50,2,500,17,10,1,0,0,11,"$GNGGA,193258.00,5210.44366,N,03009.73873,E,1,12,0.61,144.6,M,24.4,M,,*40
",0,0,2,162,16,11,11
"",17.6,57.0,27.4,0.4,99,2,211,130,0,25022176,15,1,0,237,0,1,0,0,1,0,3,29,2,3500,0,6,10,50,2,500,17,10,1,0,0,11,"$GNGGA,193820.00,5210.43607,N,03009.76907,E,1,12,0.59,146.2,M,24.4,M,,*4A
",0,0,2,118,48,43,43
"",18.4,5.8,29.1,0.5,89,2,209,130,0,25022176,16,1,0,238,0,1,0,0,1,0,3,29,2,3500,0,6,10,50,2,500,17,10,1,0,0,11,"$GNGGA,194310.00,5210.42807,N,03009.79746,E,1,12,0.57,144.3,M,24.4,M,,*43
",0,0,2,61,5,1,1
"",17.3,38.7,28.9,0.4,99,2,211,130,0,25022176,17,1,0,239,0,1,0,0,1,0,3,29,2,3500,0,6,10,50,2,500,17,10,1,0,0,11,"$GNGGA,194750.00,5210.41168,N,03009.82868,E,1,12,0.62,142.8,M,24.4,M,,*4C
",0,0,2,113,-67,-70,-69
"",19.5,7.4,28.4,0.5,99,2,207,130,0,25022176,18,1,0,240,0,1,0,0,1,0,3,29,2,3500,0,6,10,50,2,500,17,10,1,0,0,11,"$GNGGA,195331.00,5210.41569,N,03009.87961,E,2,12,0.65,135.6,M,24.4,M,,0000*4C
",0,0,2,123,25,22,21
"",19.7,44.0,28.0,0.4,99,2,211,130,0,25022176,19,1,0,241,0,1,0,0,1,0,3,29,2,3500,0,6,10,50,2,500,17,10,1,0,0,11,"$GNGGA,195729.00,5210.42214,N,03009.91814,E,2,12,0.62,147.7,M,24.4,M,,0000*48
",0,0,2,62,-20,-25,-27
"",16.8,34.5,28.0,0.5,99,2,206,130,0,25022176,20,1,0,242,0,1,0,0,1,0,3,29,2,3500,0,6,10,50,2,500,17,10,1,0,0,11,"$GNGGA,200248.00,5210.41446,N,03009.96128,E,2,12,0.67,139.8,M,24.4,M,,0000*45
",0,0,2,41,12,7,6
"",18.7,41.6,27.7,0.5,86,2,196,130,0,25022176,21,1,0,243,0,1,0,0,1,0,3,29,2,3500,0,6,10,50,2,500,17,10,1,0,0,11,"$GNGGA,200753.00,5210.39618,N,03009.98611,E,2,12,0.64,133.4,M,24.4,M,,0000*4A
",0,0,2,161,0,-4,-3
"",17.6,40.9,30.1,0.5,82,2,205,130,0,25022176,22,1,0,244,0,1,0,0,1,0,3,29,2,3500,0,6,10,50,2,500,17,10,1,0,0,11,"$GNGGA,201729.00,5210.28520,N,03009.90438,E,2,12,0.68,132.8,M,24.4,M,,0000*4E
",0,0,2,163,-14,-18,-18
"",18.9,8.2,26.2,0.5,99,2,207,130,0,25022176,23,1,0,245,0,1,0,0,1,0,3,29,2,3500,0,6,10,50,2,500,17,10,1,0,0,11,"$GNGGA,202428.00,5210.28521,N,03009.94505,E,2,12,0.63,140.4,M,24.4,M,,0000*47
",0,0,2,219,-151,-155,-157
"",19.2,67.7,26.5,0.4,99,2,212,130,0,25022176,24,1,0,246,0,1,0,0,1,0,3,29,2,3500,0,6,10,50,2,500,17,10,1,0,0,11,"$GNGGA,202911.00,5210.28822,N,03009.99385,E,2,12,0.65,145.3,M,24.4,M,,0000*49
",0,0,2,60,-35,-39,-40
"",17.0,43.5,28.0,0.4,99,2,214,130,0,25022176,25,1,0,247,0,1,0,0,1,0,3,29,2,3500,0,6,10,50,2,500,17,10,1,0,0,11,"$GNGGA,203500.00,5210.29642,N,03010.04431,E,1,12,0.64,143.1,M,24.4,M,,*4F
",0,0,2,389,62,58,57
"",18.0,7.4,27.4,0.5,99,2,200,130,0,25022176,26,1,0,248,0,1,0,0,1,0,3,29,2,3500,0,6,10,50,2,500,17,10,1,0,0,11,"$GNGGA,203718.00,5210.30049,N,03010.08819,E,1,12,0.69,141.7,M,24.4,M,,*42
",0,0,2,153,1,-3,-4
"",18.2,7.1,28.7,0.4,99,2,214,134,0,25022176,0,1,0,249,0,1,0,0,1,0,3,29,2,3500,0,6,10,50,2,500,17,10,1,0,0,11,"$GNGGA,115305.00,5209.79304,N,03009.44771,E,1,12,0.59,124.5,M,24.4,M,,*42
",0,0,2,141,101,99,99
"",14.7,6.5,28.6,0.4,99,2,215,132,0,25022176,1,1,0,250,0,1,0,0,1,0,3,29,2,3500,0,6,10,50,2,500,17,10,1,0,0,11,"$GNGGA,115954.00,5209.78161,N,03009.47641,E,2,12,0.59,126.7,M,24.4,M,,0000*4E
",0,0,2,132,3,-1,-2
"",14.5,6.5,29.9,0.5,99,2,206,131,0,25022176,2,1,0,251,0,1,0,0,1,0,3,29,2,3500,0,6,10,50,2,500,17,10,1,0,0,11,"$GNGGA,121211.00,5209.76872,N,03009.50387,E,2,12,0.61,127.8,M,24.4,M,,0000*4A
",0,0,2,93,-11,-16,-16
"",13.7,6.6,29.3,0.5,97,2,211,130,0,25022176,3,1,0,252,0,1,0,0,1,0,3,29,2,3500,0,6,10,50,2,500,17,10,1,0,0,11,"$GNGGA,122237.00,5209.75635,N,03009.53560,E,2,12,0.56,125.5,M,24.4,M,,0000*44
",0,0,2,189,-60,-63,-63
"",14.0,39.1,30.7,0.4,99,2,218,130,0,25022176,4,1,0,253,0,1,0,0,1,0,3,29,2,3500,0,6,10,50,2,500,17,10,1,0,0,11,"$GNGGA,123019.00,5209.74464,N,03009.56304,E,2,12,0.60,127.2,M,24.4,M,,0000*4D
",0,0,2,186,199,195,195
"",13.4,47.5,28.5,0.5,99,2,220,130,0,25022176,5,1,0,254,0,1,0,0,1,0,3,29,2,3500,0,6,10,50,2,500,17,10,1,0,0,11,"$GNGGA,123908.00,5209.73258,N,03009.59135,E,2,12,0.68,127.9,M,24.4,M,,0000*46
",0,0,2,94,35,32,30
"",14.0,35.0,29.5,0.5,92,2,211,130,0,25022176,6,1,0,255,0,1,0,0,1,0,3,29,2,3500,0,6,10,50,2,500,17,10,1,0,0,11,"$GNGGA,125248.00,5209.72019,N,03009.62184,E,2,12,0.77,127.9,M,24.4,M,,0000*45
",0,0,2,201,-132,-135,-136
"",16.3,61.2,29.2,0.4,92,2,220,130,0,25022176,7,1,0,256,0,1,0,0,1,0,3,29,2,3500,0,6,10,50,2,500,17,10,1,0,0,11,"$GNGGA,125835.00,5209.70814,N,03009.64909,E,2,12,0.80,127.5,M,24.4,M,,0000*4D
",0,0,2,77,49,44,43
"",18.3,37.1,29.5,0.5,99,2,213,130,0,25022176,8,1,0,257,0,1,0,0,1,0,3,29,2,3500,0,6,10,50,2,500,17,10,1,0,0,11,"$GNGGA,130246.00,5209.69559,N,03009.67853,E,2,12,0.84,127.0,M,24.4,M,,0000*47
",0,0,2,72,-2,-6,-7
"",16.3,59.2,29.7,0.4,99,2,220,130,0,25022176,9,1,0,258,0,1,0,0,1,0,3,29,2,3500,0,6,10,50,2,500,17,10,1,0,0,11,"$GNGGA,130824.00,5209.68352,N,03009.70805,E,2,12,0.77,126.8,M,24.4,M,,0000*45
",0,0,2,98,-101,-105,-106
"",15.8,7.5,30.7,0.5,99,2,200,130,0,25022176,10,1,0,259,0,1,0,0,1,0,3,29,2,3500,0,6,10,50,2,500,17,10,1,0,0,11,"$GNGGA,133914.00,5209.53368,N,03009.62633,E,2,12,0.63,128.5,M,24.4,M,,0000*4B
",0,0,2,131,16,12,12
"",13.3,7.1,29.0,0.5,83,2,211,130,0,25022176,11,1,0,260,0,1,0,0,1,0,3,29,2,3500,0,6,10,50,2,500,17,10,1,0,0,11,"$GNGGA,134925.00,5209.54551,N,03009.59969,E,2,12,0.66,127.7,M,24.4,M,,0000*45
",0,0,2,327,-4,-7,-6
"",15.1,6.2,29.3,0.4,99,2,214,130,0,25022176,12,1,0,261,0,1,0,0,1,0,3,29,2,3500,0,6,10,50,2,500,17,10,1,0,0,11,"$GNGGA,135537.00,5209.55770,N,03009.57165,E,2,12,0.58,125.6,M,24.4,M,,0000*4F
",0,0,2,155,-20,-26,-27
"",14.5,54.6,28.9,0.5,99,2,216,130,0,25022176,13,1,0,262,0,1,0,0,1,0,3,29,2,3500,0,6,10,50,2,500,17,10,1,0,0,11,"$GNGGA,141748.00,5209.57017,N,03009.54336,E,2,12,0.65,123.2,M,24.4,M,,0000*49
",0,0,2,269,-295,-302,-305
"",15.1,7.5,28.9,0.5,99,2,200,130,0,25022176,14,1,0,263,0,1,0,0,1,0,3,29,2,3500,0,6,10,50,2,500,17,10,1,0,0,11,"$GNGGA,142325.00,5209.58222,N,03009.51309,E,2,12,0.58,125.2,M,24.4,M,,0000*4F
",0,0,2,101,71,67,67
"",14.8,40.3,29.0,0.4,99,2,219,130,0,25022176,15,1,0,264,0,1,0,0,1,0,3,29,2,3500,0,6,10,50,2,500,17,10,1,0,0,11,"$GNGGA,142959.00,5209.59477,N,03009.48483,E,2,12,0.64,125.1,M,24.4,M,,0000*48
",0,0,2,57,13,8,7
"",16.1,53.9,30.3,0.5,89,2,202,130,0,25022176,16,1,0,265,0,1,0,0,1,0,3,29,2,3500,0,6,10,50,2,500,17,10,1,0,0,11,"$GNGGA,143525.00,5209.60628,N,03009.45502,E,2,12,0.64,126.1,M,24.4,M,,0000*4A
",0,0,2,115,58,53,52
"",13.9,37.5,29.2,0.4,99,2,214,130,0,25022176,17,1,0,266,0,1,0,0,1,0,3,29,2,3500,0,6,10,50,2,500,17,10,1,0,0,11,"$GNGGA,144334.00,5209.61860,N,03009.42565,E,2,12,0.59,126.2,M,24.4,M,,0000*43
",0,0,2,212,-93,-97,-98
"",18.0,51.5,30.3,0.5,91,2,201,130,0,25022176,18,1,0,267,0,1,0,0,1,0,3,29,2,3500,0,6,10,50,2,500,17,10,1,0,0,11,"$GNGGA,144725.00,5209.62993,N,03009.39711,E,2,12,0.58,127.3,M,24.4,M,,0000*45
",0,0,2,63,5,0,-2
"",15.4,39.2,29.4,0.5,99,2,204,130,0,25022176,19,1,0,268,0,1,0,0,1,0,3,29,2,3500,0,6,10,50,2,500,17,10,1,0,0,11,"$GNGGA,145220.00,5209.64397,N,03009.36978,E,2,12,0.58,126.0,M,24.4,M,,0000*40
",0,0,2,121,74,70,69
"",17.4,6.9,29.8,0.5,99,2,210,130,0,25022176,20,1,0,269,0,1,0,0,1,0,3,29,2,3500,0,6,10,50,2,500,17,10,1,0,0,11,"$GNGGA,145925.00,5209.50656,N,03009.25980,E,2,12,0.58,126.7,M,24.4,M,,0000*43
",0,0,2,316,233,230,230
"",13.3,64.7,29.4,0.4,99,2,216,130,0,25022176,21,1,0,270,0,1,0,0,1,0,3,29,2,3500,0,6,10,50,2,500,17,10,1,0,0,11,"$GNGGA,150619.00,5209.49589,N,03009.28525,E,2,12,0.56,129.9,M,24.4,M,,0000*4F
",0,0,2,67,-33,-39,-39
"",15.6,7.3,28.9,0.5,89,2,211,130,0,25022176,22,1,0,271,0,1,0,0,1,0,3,29,2,3500,0,6,10,50,2,500,17,10,1,0,0,11,"$GNGGA,150851.00,5209.48374,N,03009.31407,E,2,12,0.58,130.6,M,24.4,M,,0000*48
",0,0,2,112,-5,-9,-8
"",14.0,45.6,28.0,0.4,93,2,214,130,0,25022176,23,1,0,272,0,1,0,0,1,0,3,29,2,3500,0,6,10,50,2,500,17,10,1,0,0,11,"$GNGGA,151128.00,5209.47215,N,03009.34335,E,2,12,0.58,130.0,M,24.4,M,,0000*42
",0,0,2,154,-113,-118,-118
"",15.8,36.0,28.8,0.4,99,2,220,130,0,25022176,24,1,0,273,0,1,0,0,1,0,3,29,2,3500,0,6,10,50,2,500,17,10,1,0,0,11,"$GNGGA,151311.00,5209.45968,N,03009.37414,E,2,12,0.58,127.5,M,24.4,M,,0000*4D
",0,0,2,89,5,0,-1
"",14.6,7.1,29.6,0.4,91,2,215,130,0,25022176,25,1,0,274,0,1,0,0,1,0,3,29,2,3500,0,6,10,50,2,500,17,10,1,0,0,11,"$GNGGA,151512.00,5209.44734,N,03009.40174,E,2,12,0.60,128.9,M,24.4,M,,0000*45
",0,0,2,102,45,42,41
"",13.8,6.8,28.8,0.4,99,2,216,130,0,25022176,26,1,0,275,0,1,0,0,1,0,3,29,2,3500,0,6,10,50,2,500,17,10,1,0,0,11,"$GNGGA,151744.00,5209.43564,N,03009.42995,E,2,12,0.62,129.1,M,24.4,M,,0000*4A
",0,0,2,121,17,13,13
"",16.5,7.6,28.8,0.5,83,2,212,130,0,25022176,27,1,0,276,0,1,0,0,1,0,3,29,2,3500,0,6,10,50,2,500,17,10,1,0,0,11,"$GNGGA,151952.00,5209.42268,N,03009.46122,E,2,12,0.59,127.9,M,24.4,M,,0000*47
",0,0,2,180,43,38,37
"",16.5,7.9,28.5,0.7,99,2,184,130,0,25022176,28,1,0,277,0,1,0,0,1,0,3,29,2,3500,0,6,10,50,2,500,17,10,1,0,0,11,"$GNGGA,152247.00,5209.41110,N,03009.48882,E,2,12,0.61,129.6,M,24.4,M,,0000*43
",0,0,2,97,-63,-67,-67
"",14.5,37.6,29.7,0.4,99,2,212,130,0,25022176,29,1,0,278,0,1,0,0,1,0,3,29,2,3500,0,6,10,50,2,500,17,10,1,0,0,11,"$GNGGA,152500.00,5209.39931,N,03009.51835,E,2,12,0.61,129.3,M,24.4,M,,0000*42
",0,0,2,116,-27,-32,-32
"",17.6,78.5,27.9,0.5,99,2,200,131,0,25022176,0,1,0,279,0,1,0,0,1,0,3,29,2,3500,0,6,10,50,2,500,17,10,1,0,0,11,"$GNGGA,132052.00,5208.31436,N,03009.42402,E,1,12,0.70,139.9,M,24.4,M,,*47
",0,0,2,146,-86,-91,-93
